,Dc_Dist,Psa,Dispatch_Date_Time,Dispatch_Date,Dispatch_Time,Hour,Dc_Key,Location_Block,UCR_General,Text_General_Code,Police_Districts,Month,Lon,Lat,Year_Nr,Month_Nr,Day_Nr,Close to Campus,Closest College
76422,22,2,2015-01-01 00:02:00,2015-01-01,00:02:00,0,201522000002,N 29TH ST / W SEDGLEY AVE,1500.0,Weapon Violations,16,2015-01,-75.18102,39.985832,2015,1,1,No,
211558,24,2,2015-01-01 00:09:00,2015-01-01,00:09:00,0,201524000005,400 BLOCK E CLEARFIELD ST,1500.0,Weapon Violations,17,2015-01,-75.121792,39.995908,2015,1,1,No,
366682,35,2,2015-01-01 00:52:00,2015-01-01,00:52:00,0,201535000028,300 BLOCK E SHELDON ST,1500.0,Weapon Violations,20,2015-01,-75.118768,40.027861,2015,1,1,No,
385363,39,2,2015-01-01 01:04:00,2015-01-01,01:04:00,1,201539000013,1400 BLOCK W BUTLER ST,1500.0,Weapon Violations,21,2015-01,-75.151166,40.010838,2015,1,1,No,
1493958,15,3,2015-01-01 01:22:00,2015-01-01,01:22:00,1,201515000036,6500 BLOCK ROOSEVELT BLVD BLVD,1500.0,Weapon Violations,2,2015-01,-75.064497,40.036733,2015,1,1,No,
367589,15,1,2015-01-01 02:19:00,2015-01-01,02:19:00,2,201515000102,2100 BLOCK ORTHODOX ST,400.0,Aggravated Assault Firearm,11,2015-01,-75.078584,40.009459,2015,1,1,No,
1957350,18,1,2015-01-01 02:39:00,2015-01-01,02:39:00,2,201518000049,5700 BLOCK CHESTNUT ST,300.0,Robbery Firearm,14,2015-01,-75.23522,39.959682,2015,1,1,No,
88129,22,2,2015-01-01 02:58:00,2015-01-01,02:58:00,2,201522000083,3000 BLOCK W BERKS ST,1500.0,Weapon Violations,16,2015-01,-75.183419,39.985067,2015,1,1,No,
1621440,14,1,2015-01-01 03:14:00,2015-01-01,03:14:00,3,201514000052,6700 BLOCK HOLLIS ST,400.0,Aggravated Assault Firearm,10,2015-01,-75.1597,40.057896,2015,1,1,No,
2055173,22,2,2015-01-01 03:27:00,2015-01-01,03:27:00,3,201522000103,1900 BLOCK N 25TH ST,300.0,Robbery Firearm,16,2015-01,-75.175036,39.984245,2015,1,1,No,
1621451,14,1,2015-01-01 03:42:00,2015-01-01,03:42:00,3,201514000053,6700 BLOCK HOLLIS ST,400.0,Aggravated Assault Firearm,10,2015-01,-75.1597,40.057896,2015,1,1,No,
1621462,14,1,2015-01-01 03:42:00,2015-01-01,03:42:00,3,201514000054,6700 BLOCK HOLLIS ST,400.0,Aggravated Assault Firearm,10,2015-01,-75.1597,40.057896,2015,1,1,No,
825563,35,1,2015-01-01 05:15:00,2015-01-01,05:15:00,5,201535000101,5800 BLOCK N PHILIP ST,100.0,Homicide - Criminal,20,2015-01,-75.125043,40.039085,2015,1,1,No,
558371,17,2,2015-01-01 11:24:00,2015-01-01,11:24:00,11,201517000057,1300 BLOCK S NEWKIRK ST,400.0,Aggravated Assault Firearm,13,2015-01,-75.191085,39.937129,2015,1,1,No,
1908193,12,3,2015-01-01 13:42:00,2015-01-01,13:42:00,13,201512000146,6600 BLOCK DICKS AVE,400.0,Aggravated Assault Firearm,9,2015-01,-75.22952,39.918399,2015,1,1,No,
1678915,3,3,2015-01-01 13:44:00,2015-01-01,13:44:00,13,201503000129,1100 BLOCK S 11TH ST,1500.0,Weapon Violations,3,2015-01,-75.161462,39.937126,2015,1,1,No,
425859,8,3,2015-01-01 14:07:00,2015-01-01,14:07:00,14,201508000071,BRANDON RD / CORRY RD,300.0,Robbery Firearm,7,2015-01,-74.983209,40.092685,2015,1,1,No,
1583620,1,1,2015-01-01 15:55:00,2015-01-01,15:55:00,15,201501000060,2800 BLOCK CANTRELL ST,400.0,Aggravated Assault Firearm,1,2015-01,-75.193239,39.926881,2015,1,1,No,
1946274,12,3,2015-01-01 16:37:00,2015-01-01,16:37:00,16,201512000172,5800 BLOCK WOODLAND AVE,300.0,Robbery Firearm,9,2015-01,-75.22512,39.931996,2015,1,1,No,
457742,16,2,2015-01-01 18:00:00,2015-01-01,18:00:00,18,201516000116,4500 BLOCK LANCASTER AVE,300.0,Robbery Firearm,12,2015-01,-75.21385,39.97022,2015,1,1,No,
211260,35,3,2015-01-01 21:01:00,2015-01-01,21:01:00,21,201535000245,5300 BLOCK N 15TH ST,300.0,Robbery Firearm,20,2015-01,-75.14719,40.035277,2015,1,1,No,
841355,2,1,2015-01-01 21:14:00,2015-01-01,21:14:00,21,201502000183,6100 BLOCK CASTOR AVE,1500.0,Weapon Violations,2,2015-01,-75.080748,40.035907,2015,1,1,No,
202191,35,1,2015-01-01 21:31:00,2015-01-01,21:31:00,21,201535000248,1300 BLOCK W GRANGE AVE,300.0,Robbery Firearm,20,2015-01,-75.142028,40.041114,2015,1,1,No,
1367436,1,1,2015-01-01 23:46:00,2015-01-01,23:46:00,23,201501000081,2800 BLOCK CANTRELL ST,300.0,Robbery Firearm,1,2015-01,-75.193565,39.926926,2015,1,1,No,
218857,39,2,2015-01-01 23:59:00,2015-01-01,23:59:00,0,201539000242,1700 BLOCK W ONTARIO ST,300.0,Robbery Firearm,21,2015-01,-75.157445,40.005311,2015,1,1,No,
2055185,22,2,2015-01-02 02:22:00,2015-01-02,02:22:00,2,201522000320,2400 BLOCK N HOLLYWOOD ST,300.0,Robbery Firearm,16,2015-01,-75.17993,39.993914,2015,1,2,No,
2055196,22,4,2015-01-02 03:07:00,2015-01-02,03:07:00,3,201522000322,N 24TH ST / NICHOLAS ST,300.0,Robbery Firearm,16,2015-01,-75.174204,39.980287,2015,1,2,No,
800798,25,3,2015-01-02 04:35:00,2015-01-02,04:35:00,4,201525000306,3200 BLOCK D ST,300.0,Robbery Firearm,18,2015-01,-75.120886,39.999081,2015,1,2,No,
1200022,14,2,2015-01-02 05:42:00,2015-01-02,05:42:00,5,201514000262,100 BLOCK HERMAN ST,300.0,Robbery Firearm,10,2015-01,-75.175617,40.04441,2015,1,2,No,
212289,2,1,2015-01-02 06:11:00,2015-01-02,06:11:00,6,201502000225,6500 BLOCK CASTOR AVE,1500.0,Weapon Violations,2,2015-01,-75.076272,40.040732,2015,1,2,No,
1417027,25,4,2015-01-02 13:38:00,2015-01-02,13:38:00,13,201525000379,2800 BLOCK N FAIRHILL ST,400.0,Aggravated Assault Firearm,18,2015-01,-75.141214,39.993894,2015,1,2,No,
212478,15,1,2015-01-02 14:39:00,2015-01-02,14:39:00,14,201515000473,4600 BLOCK TRENTON AVE,1500.0,Weapon Violations,11,2015-01,-75.077481,40.009017,2015,1,2,No,
1462953,39,1,2015-01-02 15:29:00,2015-01-02,15:29:00,15,201539000351,4900 BLOCK KEYSER ST,400.0,Aggravated Assault Firearm,21,2015-01,-75.165658,40.02533,2015,1,2,No,
328508,18,2,2015-01-02 15:40:00,2015-01-02,15:40:00,15,201518000345,0 BLOCK S 52ND ST,1500.0,Weapon Violations,14,2015-01,-75.224974,39.959782,2015,1,2,No,
301681,19,1,2015-01-02 15:52:00,2015-01-02,15:52:00,15,201519000452,7500 BLOCK HAVERFORD AVE,300.0,Robbery Firearm,15,2015-01,-75.269085,39.97987,2015,1,2,No,
1587057,2,3,2015-01-02 18:09:00,2015-01-02,18:09:00,18,201502000315,7600 BLOCK E ROOSEVELT BLVD,400.0,Aggravated Assault Firearm,2,2015-01,-75.051546,40.050521,2015,1,2,No,
385374,39,2,2015-01-02 20:24:00,2015-01-02,20:24:00,20,201539000432,1800 BLOCK W BUTLER ST,1500.0,Weapon Violations,21,2015-01,-75.157302,40.011633,2015,1,2,No,
425881,12,2,2015-01-02 20:41:00,2015-01-02,20:41:00,20,201512000421,2100 BLOCK S 72ND ST,300.0,Robbery Firearm,9,2015-01,-75.245627,39.919582,2015,1,2,No,
192377,26,1,2015-01-02 20:42:00,2015-01-02,20:42:00,20,201526000340,2600 BLOCK N ORKNEY ST,300.0,Robbery Firearm,19,2015-01,-75.140116,39.99049,2015,1,2,No,
1906302,8,2,2015-01-02 21:06:00,2015-01-02,21:06:00,21,201508000233,3700 BLOCK MORRELL AVE,400.0,Aggravated Assault Firearm,7,2015-01,-74.987631,40.065645,2015,1,2,No,
1462964,39,2,2015-01-02 21:12:00,2015-01-02,21:12:00,21,201539000463,4200 BLOCK N SYDENHAM ST,400.0,Aggravated Assault Firearm,21,2015-01,-75.151909,40.018806,2015,1,2,No,
1251900,15,2,2015-01-02 21:29:00,2015-01-02,21:29:00,21,201515000632,6500 BLOCK E ROOSEVELT BLVD,300.0,Robbery Firearm,11,2015-01,-75.067682,40.03537,2015,1,2,No,
1493969,15,2,2015-01-02 22:23:00,2015-01-02,22:23:00,22,201515000624,2700 BLOCK LEVICK ST,1500.0,Weapon Violations,11,2015-01,-75.066472,40.033408,2015,1,2,No,
117231,25,2,2015-01-02 22:43:00,2015-01-02,22:43:00,22,201525000535,300 BLOCK E WYOMING AVE,300.0,Robbery Firearm,18,2015-01,-75.118666,40.020814,2015,1,2,No,
825574,39,3,2015-01-02 23:20:00,2015-01-02,23:20:00,23,201539000505,N 29TH ST / CHALMERS AV,100.0,Homicide - Criminal,21,2015-01,-75.178239,39.99862,2015,1,2,No,
1417038,25,3,2015-01-02 23:42:00,2015-01-02,23:42:00,23,201525000561,3300 BLOCK N 02ND ST,400.0,Aggravated Assault Firearm,18,2015-01,-75.132942,40.000696,2015,1,2,No,
1678893,2,1,2015-01-02 23:58:00,2015-01-02,23:58:00,23,201502000357,6700 BLOCK LORETTO AVE,1500.0,Weapon Violations,2,2015-01,-75.075425,40.04408,2015,1,2,No,
1251912,15,3,2015-01-03 01:01:00,2015-01-03,01:01:00,1,201515000669,4400 BLOCK MARPLE ST,300.0,Robbery Firearm,11,2015-01,-75.032161,40.035593,2015,1,3,No,
185373,25,3,2015-01-03 01:26:00,2015-01-03,01:26:00,1,201525000583,2800 BLOCK N ORKNEY ST,300.0,Robbery Firearm,18,2015-01,-75.13922,39.993961,2015,1,3,No,
425892,12,3,2015-01-03 02:56:00,2015-01-03,02:56:00,2,201512000477,6600 BLOCK GUYER AVE,300.0,Robbery Firearm,9,2015-01,-75.228766,39.918288,2015,1,3,No,
1441682,26,3,2015-01-03 03:09:00,2015-01-03,03:09:00,3,201526000402,0 BLOCK W GIRARD AVE,400.0,Aggravated Assault Firearm,19,2015-01,-75.135946,39.96879,2015,1,3,No,
1441693,26,3,2015-01-03 03:10:00,2015-01-03,03:10:00,3,201526000403,0 BLOCK W GIRARD AVE,400.0,Aggravated Assault Firearm,19,2015-01,-75.135946,39.96879,2015,1,3,No,
1831625,12,3,2015-01-03 09:39:00,2015-01-03,09:39:00,9,201512000507,2300 BLOCK S 63RD ST,300.0,Robbery Firearm,9,2015-01,-75.2297,39.925777,2015,1,3,No,
2055207,22,4,2015-01-03 12:00:00,2015-01-03,12:00:00,12,201522000723,N 23RD ST / CECIL B MOORE AV,300.0,Robbery Firearm,16,2015-01,-75.172506,39.980601,2015,1,3,No,
1979573,19,3,2015-01-03 14:16:00,2015-01-03,14:16:00,14,201519000725,5400 BLOCK LANCASTER AVE,300.0,Robbery Firearm,15,2015-01,-75.230305,39.978817,2015,1,3,No,
1957361,18,2,2015-01-03 15:17:00,2015-01-03,15:17:00,15,201518000589,5200 BLOCK LOCUST ST,300.0,Robbery Firearm,14,2015-01,-75.226153,39.955915,2015,1,3,No,
360589,39,2,2015-01-03 18:44:00,2015-01-03,18:44:00,18,201539000652,1900 BLOCK W ALLEGHENY AVE,300.0,Robbery Firearm,21,2015-01,-75.161729,40.002792,2015,1,3,No,
825585,18,2,2015-01-03 19:10:00,2015-01-03,19:10:00,19,201518000620,5400 BLOCK DELANCEY ST,100.0,Homicide - Criminal,14,2015-01,-75.230548,39.954561,2015,1,3,No,
185384,25,1,2015-01-03 19:57:00,2015-01-03,19:57:00,19,201525000744,700 BLOCK W BUTLER,300.0,Robbery Firearm,18,2015-01,-75.140929,40.009511,2015,1,3,No,
1184316,12,1,2015-01-03 21:16:00,2015-01-03,21:16:00,21,201512000635,7700 BLOCK BUIST AVE,300.0,Robbery Firearm,9,2015-01,-75.246267,39.907407,2015,1,3,No,
1815744,16,1,2015-01-03 21:19:00,2015-01-03,21:19:00,21,201516000390,3200 BLOCK BARING ST,300.0,Robbery Firearm,12,2015-01,-75.18826,39.961727,2015,1,3,Yes,Drexel University
1957372,18,3,2015-01-03 21:30:00,2015-01-03,21:30:00,21,201518000643,400 BLOCK S 45TH ST,300.0,Robbery Firearm,14,2015-01,-75.212455,39.951805,2015,1,3,Yes,University of Pennsylvania
218868,39,2,2015-01-03 21:42:00,2015-01-03,21:42:00,21,201539000701,1900 BLOCK W VENANGO ST,300.0,Robbery Firearm,21,2015-01,-75.159874,40.008695,2015,1,3,No,
1859942,16,1,2015-01-03 21:42:00,2015-01-03,21:42:00,21,201516000392,0 BLOCK WIOTA ST,300.0,Robbery Firearm,12,2015-01,-75.202677,39.958585,2015,1,3,No,
80795,14,4,2015-01-03 21:43:00,2015-01-03,21:43:00,21,201514000630,1500 BLOCK WADSWORTH AVE,300.0,Robbery Firearm,10,2015-01,-75.172901,40.08025,2015,1,3,No,
1439192,12,4,2015-01-04 01:25:00,2015-01-04,01:25:00,1,201512000674,5400 BLOCK BEAUMONT ST,1500.0,Weapon Violations,9,2015-01,-75.227111,39.942086,2015,1,4,No,
825597,25,1,2015-01-04 03:40:00,2015-01-04,03:40:00,3,201525000857,3700 BLOCK N DELHI ST,100.0,Homicide - Criminal,18,2015-01,-75.143841,40.008341,2015,1,4,No,
80917,15,2,2015-01-04 04:41:00,2015-01-04,04:41:00,4,201515001013,6000 BLOCK HARBISON AVE,300.0,Robbery Firearm,11,2015-01,-75.063096,40.02204,2015,1,4,No,
1957383,18,1,2015-01-04 06:51:00,2015-01-04,06:51:00,6,201518000700,5700 BLOCK CHESTNUT ST,300.0,Robbery Firearm,14,2015-01,-75.23519,39.95972,2015,1,4,No,
2025128,19,2,2015-01-04 11:58:00,2015-01-04,11:58:00,11,201519000959,1300 BLOCK N 60TH ST,300.0,Robbery Firearm,15,2015-01,-75.239462,39.971518,2015,1,4,No,
1815755,16,2,2015-01-04 13:02:00,2015-01-04,13:02:00,13,201516000471,4000 BLOCK LANCASTER AVE,300.0,Robbery Firearm,12,2015-01,-75.203642,39.963903,2015,1,4,No,
1908305,12,3,2015-01-04 13:02:00,2015-01-04,13:02:00,13,201512000762,6400 BLOCK CHELWYNDE AVE,400.0,Aggravated Assault Firearm,9,2015-01,-75.227892,39.920294,2015,1,4,No,
1825709,2,1,2015-01-04 13:35:00,2015-01-04,13:35:00,13,201502000611,5800 BLOCK CASTOR AVE,300.0,Robbery Firearm,2,2015-01,-75.084037,40.032433,2015,1,4,No,
202202,35,2,2015-01-04 15:30:00,2015-01-04,15:30:00,15,201535000940,4500 BLOCK N BROAD ST,300.0,Robbery Firearm,20,2015-01,-75.148491,40.021593,2015,1,4,No,
2025139,19,3,2015-01-04 15:55:00,2015-01-04,15:55:00,15,201519000992,1500 BLOCK N 52ND ST,300.0,Robbery Firearm,15,2015-01,-75.225859,39.978568,2015,1,4,No,
185395,25,3,2015-01-04 19:00:00,2015-01-04,19:00:00,19,201525000999,3200 BLOCK HOPE ST,300.0,Robbery Firearm,18,2015-01,-75.129702,39.999334,2015,1,4,No,
1184327,12,4,2015-01-04 19:11:00,2015-01-04,19:11:00,19,201512000854,1100 BLOCK S FRAZIER ST,300.0,Robbery Firearm,9,2015-01,-75.234502,39.943996,2015,1,4,No,
1587167,2,2,2015-01-04 19:16:00,2015-01-04,19:16:00,19,201502000668,6400 BLOCK PALMETTO ST,400.0,Aggravated Assault Firearm,2,2015-01,-75.093567,40.050257,2015,1,4,No,
51602,24,1,2015-01-04 20:05:00,2015-01-04,20:05:00,20,201524001146,1500 BLOCK E LYCOMING ST,300.0,Robbery Firearm,17,2015-01,-75.097135,40.008544,2015,1,4,No,
487076,24,3,2015-01-04 20:56:00,2015-01-04,20:56:00,20,201524001187,2300 BLOCK E ANN ST,400.0,Aggravated Assault Firearm,17,2015-01,-75.112155,39.986812,2015,1,4,No,
185407,25,3,2015-01-04 22:08:00,2015-01-04,22:08:00,22,201525001056,2700 BLOCK N ORKNEY ST,300.0,Robbery Firearm,18,2015-01,-75.139745,39.992087,2015,1,4,No,
1229967,3,3,2015-01-05 00:53:00,2015-01-05,00:53:00,0,201503000929,700 BLOCK WOLF ST,300.0,Robbery Firearm,3,2015-01,-75.158752,39.920373,2015,1,5,No,
117242,25,3,2015-01-05 01:13:00,2015-01-05,01:13:00,1,201525001110,3400 BLOCK KIP ST,300.0,Robbery Firearm,18,2015-01,-75.125323,40.001308,2015,1,5,No,
1247125,24,3,2015-01-05 06:27:00,2015-01-05,06:27:00,6,201524001255,3400 BLOCK ARAMINGO AVE,400.0,Aggravated Assault Firearm,17,2015-01,-75.101506,39.991005,2015,1,5,No,
1957394,18,2,2015-01-05 07:37:00,2015-01-05,07:37:00,7,201518000857,100 BLOCK S 56TH ST,300.0,Robbery Firearm,14,2015-01,-75.233235,39.959447,2015,1,5,No,
1485895,15,1,2015-01-05 08:43:00,2015-01-05,08:43:00,8,201515001305,5000 BLOCK OXFORD AVE,1500.0,Weapon Violations,11,2015-01,-75.084495,40.022877,2015,1,5,No,
1754209,25,2,2015-01-05 10:13:00,2015-01-05,10:13:00,10,201525001147,4200 BLOCK N FRONT ST,1500.0,Weapon Violations,18,2015-01,-75.126,40.014088,2015,1,5,No,
388757,5,1,2015-01-05 11:45:00,2015-01-05,11:45:00,11,201505000227,5200 BLOCK RIDGE AVE,300.0,Robbery Firearm,4,2015-01,-75.210387,40.019905,2015,1,5,No,
185418,25,4,2015-01-05 13:59:00,2015-01-05,13:59:00,13,201525001191,3500 BLOCK GERMANTOWN AVE,300.0,Robbery Firearm,18,2015-01,-75.149795,40.005889,2015,1,5,Yes,Temple University Medical
1488329,14,1,2015-01-05 15:52:00,2015-01-05,15:52:00,15,201514000994,7000 BLOCK FORREST AVE,1500.0,Weapon Violations,10,2015-01,-75.152224,40.060868,2015,1,5,No,
1908416,12,3,2015-01-05 17:12:00,2015-01-05,17:12:00,17,201512001081,3500 BLOCK S 61ST ST,400.0,Aggravated Assault Firearm,9,2015-01,-75.210675,39.919159,2015,1,5,No,
51613,24,1,2015-01-05 18:09:00,2015-01-05,18:09:00,18,201524001379,1000 BLOCK E HUNTING PARK AVE,300.0,Robbery Firearm,17,2015-01,-75.108073,40.011504,2015,1,5,No,
1251923,15,2,2015-01-05 18:25:00,2015-01-05,18:25:00,18,201515001465,5400 BLOCK N PENN ST,300.0,Robbery Firearm,11,2015-01,-75.077861,40.02632,2015,1,5,No,
192388,26,3,2015-01-05 18:42:00,2015-01-05,18:42:00,18,201526000877,2600 BLOCK POTTER ST,300.0,Robbery Firearm,19,2015-01,-75.126584,39.989709,2015,1,5,Yes,Temple University Medical
51624,24,1,2015-01-05 20:59:00,2015-01-05,20:59:00,21,201524001426,1500 BLOCK E BRISTOL ST,300.0,Robbery Firearm,17,2015-01,-75.097751,40.011796,2015,1,5,No,
165681,15,2,2015-01-05 21:41:00,2015-01-05,21:41:00,21,201515001529,6500 BLOCK E ROOSEVELT BLVD,300.0,Robbery Firearm,11,2015-01,-75.06572,40.03581,2015,1,5,No,
881411,19,2,2015-01-05 22:06:00,2015-01-05,22:06:00,22,201519001462,100 BLOCK N 55TH ST,400.0,Aggravated Assault Firearm,15,2015-01,-75.230523,39.962738,2015,1,5,No,
301692,19,2,2015-01-05 22:18:00,2015-01-05,22:18:00,22,201519001420,400 BLOCK N 62ND ST,300.0,Robbery Firearm,15,2015-01,-75.243229,39.96928,2015,1,5,No,
1493980,15,1,2015-01-05 22:56:00,2015-01-05,22:56:00,22,201515001535,5200 BLOCK MULBERRY ST,1500.0,Weapon Violations,11,2015-01,-75.074959,40.019424,2015,1,5,No,
489119,25,3,2015-01-05 23:23:00,2015-01-05,23:23:00,23,201525001399,3400 BLOCK PALETHORP ST,400.0,Aggravated Assault Firearm,18,2015-01,-75.131676,40.002185,2015,1,5,No,
825608,35,3,2015-01-05 23:38:00,2015-01-05,23:38:00,23,201535001327,6500 BLOCK N 20TH ST,100.0,Homicide - Criminal,20,2015-01,-75.151593,40.053112,2015,1,5,No,
202213,35,2,2015-01-05 23:44:00,2015-01-05,23:44:00,23,201535001323,1300 BLOCK WINDRIM AVE,300.0,Robbery Firearm,20,2015-01,-75.144286,40.030764,2015,1,5,No,
222994,25,4,2015-01-06 00:18:00,2015-01-06,00:18:00,0,201525001406,3400 BLOCK N 08TH ST,1500.0,Weapon Violations,18,2015-01,-75.142824,40.00349,2015,1,6,No,
202224,35,2,2015-01-06 00:50:00,2015-01-06,00:50:00,0,201535001329,5200 BLOCK OLD YORK RD,300.0,Robbery Firearm,20,2015-01,-75.145713,40.032191,2015,1,6,No,
291314,35,2,2015-01-06 04:33:00,2015-01-06,04:33:00,4,201535001353,4700 BLOCK N 10TH ST,400.0,Aggravated Assault Firearm,20,2015-01,-75.140699,40.024737,2015,1,6,No,
291325,35,2,2015-01-06 05:14:00,2015-01-06,05:14:00,5,201535001355,4700 BLOCK N 10TH ST,400.0,Aggravated Assault Firearm,20,2015-01,-75.140699,40.024737,2015,1,6,No,
185429,25,3,2015-01-06 06:45:00,2015-01-06,06:45:00,6,201525001429,3200 BLOCK N LEE ST,300.0,Robbery Firearm,18,2015-01,-75.128679,39.998484,2015,1,6,No,
1359997,2,1,2015-01-06 08:20:00,2015-01-06,08:20:00,8,201502000958,5700 BLOCK LANGDON ST,1500.0,Weapon Violations,2,2015-01,-75.092304,40.03437,2015,1,6,No,
1405545,12,3,2015-01-06 10:00:00,2015-01-06,10:00:00,10,201512001246,2400 BLOCK S 67TH ST,1500.0,Weapon Violations,9,2015-01,-75.23417,39.921546,2015,1,6,No,
1251934,15,1,2015-01-06 13:09:00,2015-01-06,13:09:00,13,201515001715,4500 BLOCK FRANKFORD AVE,300.0,Robbery Firearm,11,2015-01,-75.086381,40.013919,2015,1,6,No,
1771616,39,3,2015-01-06 13:22:00,2015-01-06,13:22:00,13,201539001308,2200 BLOCK W CAMBRIA ST,1500.0,Weapon Violations,21,2015-01,-75.167877,39.998786,2015,1,6,No,
1945920,2,2,2015-01-06 14:09:00,2015-01-06,14:09:00,14,201502001020,5900 BLOCK RISING SUN AVE,300.0,Robbery Firearm,2,2015-01,-75.102236,40.044244,2015,1,6,No,
457775,17,1,2015-01-06 14:30:00,2015-01-06,14:30:00,14,201517000638,1800 BLOCK WASHINGTON AVE,300.0,Robbery Firearm,13,2015-01,-75.173183,39.938695,2015,1,6,No,
797977,35,3,2015-01-06 14:42:00,2015-01-06,14:42:00,14,201535001439,5600 BLOCK N BROAD ST,300.0,Robbery Firearm,20,2015-01,-75.144767,40.039256,2015,1,6,No,
771463,39,3,2015-01-06 16:46:00,2015-01-06,16:46:00,16,201539001335,N 27TH ST / W ALLEGHENY AV,400.0,Aggravated Assault Firearm,21,2015-01,-75.173835,40.004297,2015,1,6,No,
449512,15,2,2015-01-06 18:04:00,2015-01-06,18:04:00,18,201515001785,4000 BLOCK CRESTON ST,300.0,Robbery Firearm,11,2015-01,-75.064361,40.024377,2015,1,6,No,
1859953,16,1,2015-01-06 19:12:00,2015-01-06,19:12:00,19,201516000797,3900 BLOCK BROWN ST 1,300.0,Robbery Firearm,12,2015-01,-75.202554,39.967502,2015,1,6,No,
1251945,15,1,2015-01-06 19:30:00,2015-01-06,19:30:00,19,201515001805,4900 BLOCK FRANKFORD AVE,300.0,Robbery Firearm,11,2015-01,-75.081259,40.019479,2015,1,6,No,
1108038,22,1,2015-01-06 19:40:00,2015-01-06,19:40:00,19,201522001689,2300 BLOCK N COLORADO ST,400.0,Aggravated Assault Firearm,16,2015-01,-75.161293,39.988626,2015,1,6,No,
1831692,14,4,2015-01-06 19:46:00,2015-01-06,19:46:00,19,201514001281,8100 BLOCK STENTON AVE,300.0,Robbery Firearm,10,2015-01,-75.177999,40.066798,2015,1,6,No,
223006,25,4,2015-01-06 19:59:00,2015-01-06,19:59:00,20,201525001578,3100 BLOCK N PARK AVE,1500.0,Weapon Violations,18,2015-01,-75.15202,39.999851,2015,1,6,No,
1439203,12,3,2015-01-06 20:48:00,2015-01-06,20:48:00,20,201512001390,6700 BLOCK DICKS AVE,1500.0,Weapon Violations,9,2015-01,-75.230076,39.918013,2015,1,6,No,
800965,35,1,2015-01-06 20:54:00,2015-01-06,20:54:00,20,201535001526,600 BLOCK CHEW AVE,300.0,Robbery Firearm,20,2015-01,-75.132167,40.038208,2015,1,6,No,
1815766,16,2,2015-01-06 23:43:00,2015-01-06,23:43:00,23,201516000834,800 BLOCK WIOTA ST,300.0,Robbery Firearm,12,2015-01,-75.203868,39.968424,2015,1,6,No,
192400,26,2,2015-01-07 00:45:00,2015-01-07,00:45:00,0,201526001076,1700 BLOCK N 06TH ST,300.0,Robbery Firearm,19,2015-01,-75.145339,39.977131,2015,1,7,No,
523148,25,4,2015-01-07 01:29:00,2015-01-07,01:29:00,1,201525001619,3400 BLOCK N BROAD ST,1500.0,Weapon Violations,18,2015-01,-75.152174,40.004737,2015,1,7,Yes,Temple University Medical
1405322,8,3,2015-01-07 09:41:00,2015-01-07,09:41:00,9,201508000839,11000 BLOCK KNIGHTS RD,1500.0,Weapon Violations,7,2015-01,-74.976286,40.081409,2015,1,7,No,
457640,14,4,2015-01-07 10:36:00,2015-01-07,10:36:00,10,201514001381,1600 BLOCK WADSWORTH AVE,300.0,Robbery Firearm,10,2015-01,-75.171921,40.08115,2015,1,7,No,
1754231,25,2,2015-01-07 11:29:00,2015-01-07,11:29:00,11,201525001693,151 W LUZERNE ST,1500.0,Weapon Violations,18,2015-01,-75.130461,40.01136,2015,1,7,No,
825619,12,3,2015-01-07 14:01:00,2015-01-07,14:01:00,14,201512001566,6100 BLOCK GLENMORE AVE,100.0,Homicide - Criminal,9,2015-01,-75.228209,39.926434,2015,1,7,No,
1852956,14,1,2015-01-07 15:07:00,2015-01-07,15:07:00,15,201514001430,6000 BLOCK E WISTER ST,300.0,Robbery Firearm,10,2015-01,-75.158251,40.045469,2015,1,7,No,
1852968,14,3,2015-01-07 16:20:00,2015-01-07,16:20:00,16,201514001440,100 BLOCK W CLIVEDEN ST,300.0,Robbery Firearm,10,2015-01,-75.18547,40.044338,2015,1,7,No,
1587279,2,2,2015-01-07 18:04:00,2015-01-07,18:04:00,18,201502001240,6500 BLOCK RISING SUN AVE,400.0,Aggravated Assault Firearm,2,2015-01,-75.093504,40.051694,2015,1,7,No,
185886,25,2,2015-01-07 18:16:00,2015-01-07,18:16:00,18,201525001793,400 BLOCK W MENTOR ST,300.0,Robbery Firearm,18,2015-01,-75.131583,40.022982,2015,1,7,No,
366693,35,3,2015-01-07 18:18:00,2015-01-07,18:18:00,18,201535001722,1500 BLOCK W KINSDALE ST,1500.0,Weapon Violations,20,2015-01,-75.143038,40.054754,2015,1,7,No,
1417049,25,1,2015-01-07 21:20:00,2015-01-07,21:20:00,21,201525001825,500 BLOCK W BUTLER ST,400.0,Aggravated Assault Firearm,18,2015-01,-75.137657,40.009156,2015,1,7,No,
185897,25,4,2015-01-07 21:32:00,2015-01-07,21:32:00,21,201525001822,3000 BLOCK N FRANKLIN ST,300.0,Robbery Firearm,18,2015-01,-75.143512,39.997271,2015,1,7,No,
1200033,14,2,2015-01-07 21:53:00,2015-01-07,21:53:00,21,201514001501,200 BLOCK E DORSET ST,300.0,Robbery Firearm,10,2015-01,-75.18303,40.0553,2015,1,7,No,
1908528,12,2,2015-01-07 22:40:00,2015-01-07,22:40:00,22,201512001675,5900 BLOCK TRINITY ST,400.0,Aggravated Assault Firearm,9,2015-01,-75.231476,39.934547,2015,1,7,No,
1979584,19,2,2015-01-07 22:49:00,2015-01-07,22:49:00,22,201519002030,5100 BLOCK W THOMPSON ST,300.0,Robbery Firearm,15,2015-01,-75.224991,39.973145,2015,1,7,No,
2025150,19,1,2015-01-08 00:57:00,2015-01-08,00:57:00,0,201519002044,500 BLOCK N 63RD ST,300.0,Robbery Firearm,15,2015-01,-75.245206,39.97042,2015,1,8,No,
2025161,19,3,2015-01-08 01:46:00,2015-01-08,01:46:00,1,201519002058,1500 BLOCK N 52ND ST,300.0,Robbery Firearm,15,2015-01,-75.226642,39.977321,2015,1,8,No,
1251956,15,1,2015-01-08 06:24:00,2015-01-08,06:24:00,6,201515002239,1300 BLOCK HARRISON ST,300.0,Robbery Firearm,11,2015-01,-75.086325,40.021408,2015,1,8,No,
1200044,14,1,2015-01-08 09:31:00,2015-01-08,09:31:00,9,201514001596,7700 BLOCK RUGBY ST,300.0,Robbery Firearm,10,2015-01,-75.165385,40.0677,2015,1,8,No,
360457,35,2,2015-01-08 12:54:00,2015-01-08,12:54:00,12,201535001883,5200 BLOCK RISING SUN AVE 1,300.0,Robbery Firearm,20,2015-01,-75.118637,40.030078,2015,1,8,No,
385385,39,2,2015-01-08 14:57:00,2015-01-08,14:57:00,14,201539001787,3500 BLOCK N BROAD ST,1500.0,Weapon Violations,21,2015-01,-75.151818,40.006932,2015,1,8,Yes,Temple University Medical
192411,26,1,2015-01-08 15:47:00,2015-01-08,15:47:00,15,201526001359,2200 BLOCK N FRONT ST,300.0,Robbery Firearm,19,2015-01,-75.132295,39.984615,2015,1,8,No,
545941,9,3,2015-01-08 18:51:00,2015-01-08,18:51:00,18,201509000929,N BROAD ST / POPLAR ST,300.0,Robbery Firearm,8,2015-01,-75.159705,39.970211,2015,1,8,No,
1488340,14,1,2015-01-08 19:35:00,2015-01-08,19:35:00,19,201514001694,7300 BLOCK OGONTZ AVE,1500.0,Weapon Violations,10,2015-01,-75.154925,40.065035,2015,1,8,No,
1184338,12,3,2015-01-08 20:29:00,2015-01-08,20:29:00,20,201512001860,2400 BLOCK S 64TH ST,300.0,Robbery Firearm,9,2015-01,-75.230516,39.924207,2015,1,8,No,
825630,12,4,2015-01-08 21:01:00,2015-01-08,21:01:00,21,201512001874,5600 BLOCK BALTIMORE AVE,100.0,Homicide - Criminal,9,2015-01,-75.236791,39.946543,2015,1,8,No,
449523,15,3,2015-01-08 22:22:00,2015-01-08,22:22:00,22,201515002474,7900 BLOCK FRANKFORD AVE,300.0,Robbery Firearm,11,2015-01,-75.029907,40.040726,2015,1,8,No,
88140,22,3,2015-01-08 22:25:00,2015-01-08,22:25:00,22,201522002296,1800 BLOCK CECIL B MOORE AVE,1500.0,Weapon Violations,16,2015-01,-75.164307,39.979489,2015,1,8,No,
192422,26,3,2015-01-09 00:13:00,2015-01-09,00:13:00,0,201526001406,100 BLOCK E GIRARD AVE,300.0,Robbery Firearm,19,2015-01,-75.134385,39.968771,2015,1,9,No,
543721,8,3,2015-01-09 01:21:00,2015-01-09,01:21:00,1,201508001106,4300 BLOCK BYBERRY RD,300.0,Robbery Firearm,7,2015-01,-74.964763,40.082301,2015,1,9,No,
1406165,14,4,2015-01-09 09:09:00,2015-01-09,09:09:00,9,201514001795,1100 BLOCK E MOUNT PLEASANT AVE,1500.0,Weapon Violations,10,2015-01,-75.175466,40.071381,2015,1,9,No,
640510,6,3,2015-01-09 13:27:00,2015-01-09,13:27:00,13,201506001132,1300 BLOCK WALNUT ST,300.0,Robbery Firearm,5,2015-01,-75.163166,39.949176,2015,1,9,No,
1251967,15,1,2015-01-09 13:55:00,2015-01-09,13:55:00,13,201515002603,1800 BLOCK KINSEY ST,300.0,Robbery Firearm,11,2015-01,-75.083349,40.01082,2015,1,9,No,
457629,12,2,2015-01-09 16:41:00,2015-01-09,16:41:00,16,201512002055,6100 BLOCK WOODLAND AVE,300.0,Robbery Firearm,9,2015-01,-75.230555,39.928297,2015,1,9,No,
88151,22,2,2015-01-09 17:56:00,2015-01-09,17:56:00,17,201522002482,2500 BLOCK W LEHIGH AVE,1500.0,Weapon Violations,16,2015-01,-75.172414,39.996214,2015,1,9,No,
2025172,19,1,2015-01-09 18:27:00,2015-01-09,18:27:00,18,201519002564,0 BLOCK N 63RD ST,300.0,Robbery Firearm,15,2015-01,-75.2468,39.962768,2015,1,9,No,
1247136,24,1,2015-01-09 18:55:00,2015-01-09,18:55:00,18,201524002538,3300 BLOCK JASPER ST,400.0,Aggravated Assault Firearm,17,2015-01,-75.108525,39.997061,2015,1,9,No,
308716,22,3,2015-01-09 19:42:00,2015-01-09,19:42:00,19,201522002523,1200 BLOCK N BROAD ST,300.0,Robbery Firearm,16,2015-01,-75.159384,39.971497,2015,1,9,Yes,Temple University
1908638,12,4,2015-01-09 20:57:00,2015-01-09,20:57:00,20,201512002103,1400 BLOCK S 53RD ST,400.0,Aggravated Assault Firearm,9,2015-01,-75.22113,39.940367,2015,1,9,No,
1836912,15,3,2015-01-09 23:40:00,2015-01-09,23:40:00,23,201515002794,7300 BLOCK STATE RD,300.0,Robbery Firearm,11,2015-01,-75.029565,40.026855,2015,1,9,No,
185908,25,4,2015-01-09 23:55:00,2015-01-09,23:55:00,23,201525002336,3100 BLOCK N DARIEN ST,300.0,Robbery Firearm,18,2015-01,-75.144169,39.999099,2015,1,9,No,
825641,12,3,2015-01-10 00:48:00,2015-01-10,00:48:00,0,201512002152,1900 BLOCK S 56TH ST,100.0,Homicide - Criminal,9,2015-01,-75.223011,39.935466,2015,1,10,No,
223017,25,4,2015-01-10 01:02:00,2015-01-10,01:02:00,1,201525002348,3600 BLOCK GERMANTOWN AVE,1500.0,Weapon Violations,18,2015-01,-75.150708,40.009048,2015,1,10,Yes,Temple University
1247148,24,2,2015-01-10 01:09:00,2015-01-10,01:09:00,1,201524002634,100 BLOCK E WISHART ST,400.0,Aggravated Assault Firearm,17,2015-01,-75.128023,39.997808,2015,1,10,No,
223028,25,3,2015-01-10 01:24:00,2015-01-10,01:24:00,1,201525002352,300 BLOCK E ONTARIO ST,1500.0,Weapon Violations,18,2015-01,-75.124161,40.00102,2015,1,10,No,
1946041,3,2,2015-01-10 02:05:00,2015-01-10,02:05:00,2,201503001933,1600 BLOCK S CHRISTOPHER COLUMBUS BLVD,300.0,Robbery Firearm,3,2015-01,-75.14502,39.926471,2015,1,10,No,
1439214,12,3,2015-01-10 02:06:00,2015-01-10,02:06:00,2,201512002159,2200 BLOCK S FELTON ST,1500.0,Weapon Violations,9,2015-01,-75.231031,39.927643,2015,1,10,No,
376459,16,2,2015-01-10 02:34:00,2015-01-10,02:34:00,2,201516001316,4100 BLOCK OGDEN ST,400.0,Aggravated Assault Firearm,12,2015-01,-75.207779,39.96898,2015,1,10,No,
218879,39,1,2015-01-10 12:23:00,2015-01-10,12:23:00,12,201539002262,4900 BLOCK KEYSER ST,300.0,Robbery Firearm,21,2015-01,-75.165579,40.025174,2015,1,10,No,
173533,15,3,2015-01-10 16:13:00,2015-01-10,16:13:00,16,201515002956,7300 BLOCK E ROOSEVELT BLVD,400.0,Aggravated Assault Firearm,11,2015-01,-75.053959,40.044357,2015,1,10,No,
1946241,9,2,2015-01-10 18:48:00,2015-01-10,18:48:00,18,201509001184,2100 BLOCK MARKET ST,300.0,Robbery Firearm,8,2015-01,-75.173228,39.953629,2015,1,10,No,
843130,3,3,2015-01-10 19:55:00,2015-01-10,19:55:00,19,201503002038,1400 BLOCK S 07TH ST,1500.0,Weapon Violations,3,2015-01,-75.156629,39.930196,2015,1,10,No,
1980617,19,1,2015-01-10 20:19:00,2015-01-10,20:19:00,20,201519002894,5600 BLOCK WYNDALE AVE,1500.0,Weapon Violations,15,2015-01,-75.235694,39.989265,2015,1,10,No,
1255065,15,1,2015-01-10 21:12:00,2015-01-10,21:12:00,21,201515003018,1900 BLOCK BERKSHIRE ST,300.0,Robbery Firearm,11,2015-01,-75.08517,40.008916,2015,1,10,No,
385396,39,2,2015-01-10 22:05:00,2015-01-10,22:05:00,22,201539002368,4200 BLOCK GERMANTOWN AVE,1500.0,Weapon Violations,21,2015-01,-75.155015,40.018107,2015,1,10,No,
1957405,18,2,2015-01-10 22:49:00,2015-01-10,22:49:00,22,201518002029,5000 BLOCK LARCHWOOD AVE,300.0,Robbery Firearm,14,2015-01,-75.22266,39.951495,2015,1,10,No,
825652,15,3,2015-01-10 23:24:00,2015-01-10,23:24:00,23,201515003047,4600 BLOCK VISTA ST,100.0,Homicide - Criminal,11,2015-01,-75.032151,40.032772,2015,1,10,No,
1184350,12,2,2015-01-10 23:33:00,2015-01-10,23:33:00,23,201512002345,2100 BLOCK S 60TH ST,300.0,Robbery Firearm,9,2015-01,-75.22888,39.931348,2015,1,10,No,
1488351,14,2,2015-01-11 00:13:00,2015-01-11,00:13:00,0,201514002283,0 BLOCK E SEYMOUR ST,1500.0,Weapon Violations,17,2015-01,-75.130553,39.992432,2015,1,11,No,
1230078,3,1,2015-01-11 01:05:00,2015-01-11,01:05:00,1,201503002140,1000 BLOCK S 04TH ST,300.0,Robbery Firearm,3,2015-01,-75.150576,39.93561,2015,1,11,No,
185919,25,1,2015-01-11 01:12:00,2015-01-11,01:12:00,1,201525002620,3700 BLOCK N 13TH ST,300.0,Robbery Firearm,18,2015-01,-75.149092,40.009001,2015,1,11,No,
825663,15,3,2015-01-11 01:16:00,2015-01-11,01:16:00,1,201515003062,4600 BLOCK VISTA ST,100.0,Homicide - Criminal,11,2015-01,-75.032151,40.032772,2015,1,11,No,
825674,15,3,2015-01-11 01:16:00,2015-01-11,01:16:00,1,201515003063,4600 BLOCK VISTA ST,100.0,Homicide - Criminal,11,2015-01,-75.032151,40.032772,2015,1,11,No,
1462987,39,2,2015-01-11 01:19:00,2015-01-11,01:19:00,1,201539002398,1600 BLOCK W WINGOHOCKING ST,400.0,Aggravated Assault Firearm,21,2015-01,-75.153353,40.022054,2015,1,11,No,
1462975,39,2,2015-01-11 01:32:00,2015-01-11,01:32:00,1,201539002397,1600 BLOCK W WINGOHOCKING ST,400.0,Aggravated Assault Firearm,21,2015-01,-75.153353,40.022054,2015,1,11,No,
357854,18,2,2015-01-11 02:07:00,2015-01-11,02:07:00,2,201518002048,5400 BLOCK WALNUT ST 9,300.0,Robbery Firearm,14,2015-01,-75.22936,39.957396,2015,1,11,No,
1462999,39,2,2015-01-11 02:49:00,2015-01-11,02:49:00,2,201539002405,1600 BLOCK W WINGOHOCKING ST,400.0,Aggravated Assault Firearm,21,2015-01,-75.153353,40.022054,2015,1,11,No,
894097,6,3,2015-01-11 03:02:00,2015-01-11,03:02:00,3,201506001390,100 BLOCK S 02ND ST,1500.0,Weapon Violations,5,2015-01,-75.144225,39.947496,2015,1,11,No,
367600,15,3,2015-01-11 03:20:00,2015-01-11,03:20:00,3,201515003086,4100 BLOCK TYSON AVE,400.0,Aggravated Assault Firearm,11,2015-01,-75.045571,40.032362,2015,1,11,No,
51635,24,1,2015-01-11 09:09:00,2015-01-11,09:09:00,9,201524003017,1800 BLOCK E ALLEGHENY AVE,300.0,Robbery Firearm,17,2015-01,-75.112786,39.995901,2015,1,11,No,
376570,16,2,2015-01-11 10:20:00,2015-01-11,10:20:00,10,201516001483,4200 BLOCK OGDEN ST,400.0,Aggravated Assault Firearm,12,2015-01,-75.20886,39.968861,2015,1,11,No,
358076,12,1,2015-01-11 14:38:00,2015-01-11,14:38:00,14,201512002478,6600 BLOCK ESSINGTON AVE,300.0,Robbery Firearm,9,2015-01,-75.22117,39.914999,2015,1,11,No,
825685,22,4,2015-01-11 14:42:00,2015-01-11,14:42:00,14,201522003014,1400 BLOCK N HOLLYWOOD ST,100.0,Homicide - Criminal,16,2015-01,-75.183301,39.977954,2015,1,11,No,
523316,19,2,2015-01-11 15:51:00,2015-01-11,15:51:00,15,201519003118,5400 BLOCK LANSDOWNE AVE,300.0,Robbery Firearm,15,2015-01,-75.230896,39.976919,2015,1,11,No,
51646,24,2,2015-01-11 15:55:00,2015-01-11,15:55:00,15,201524003115,800 BLOCK E ALLEGHENY AVE,300.0,Robbery Firearm,18,2015-01,-75.14406,40.000391,2015,1,11,No,
572875,19,2,2015-01-11 16:13:00,2015-01-11,16:13:00,16,201519003119,5400 BLOCK LANSDOWNE AVE,300.0,Robbery Firearm,15,2015-01,-75.230896,39.976919,2015,1,11,No,
1908749,12,2,2015-01-11 16:24:00,2015-01-11,16:24:00,16,201512002487,2100 BLOCK GOULD ST,400.0,Aggravated Assault Firearm,9,2015-01,-75.236399,39.926026,2015,1,11,No,
374375,18,1,2015-01-11 16:42:00,2015-01-11,16:42:00,16,201518002133,5800 BLOCK PINE ST,400.0,Aggravated Assault Firearm,14,2015-01,-75.239687,39.955249,2015,1,11,No,
301703,19,1,2015-01-11 17:26:00,2015-01-11,17:26:00,17,201519003149,7500 BLOCK CITY AVE,300.0,Robbery Firearm,15,2015-01,-75.269309,39.980115,2015,1,11,No,
358042,8,2,2015-01-11 17:56:00,2015-01-11,17:56:00,17,201508001519,9900 BLOCK FRANKFORD AVE,300.0,Robbery Firearm,7,2015-01,-74.985296,40.063547,2015,1,11,Yes,Holy Family University
881521,19,2,2015-01-11 18:11:00,2015-01-11,18:11:00,18,201519003143,5000 BLOCK LANCASTER AVE,400.0,Aggravated Assault Firearm,15,2015-01,-75.224316,39.976127,2015,1,11,No,
80806,14,4,2015-01-11 18:54:00,2015-01-11,18:54:00,18,201514002440,1600 BLOCK WADSWORTH AVE,300.0,Robbery Firearm,10,2015-01,-75.171752,40.08149,2015,1,11,No,
1417060,25,3,2015-01-11 19:28:00,2015-01-11,19:28:00,19,201525002818,3400 BLOCK HARTVILLE ST,400.0,Aggravated Assault Firearm,18,2015-01,-75.119084,40.00106,2015,1,11,No,
1255076,15,1,2015-01-11 19:54:00,2015-01-11,19:54:00,19,201515003249,2100 BLOCK HAWORTH ST,300.0,Robbery Firearm,11,2015-01,-75.07267,40.012644,2015,1,11,No,
1368213,3,3,2015-01-11 20:01:00,2015-01-11,20:01:00,20,201503002284,2200 BLOCK S 07TH ST,300.0,Robbery Firearm,3,2015-01,-75.158598,39.920777,2015,1,11,No,
841466,2,1,2015-01-11 21:52:00,2015-01-11,21:52:00,21,201502001985,6300 BLOCK CASTOR AVE,1500.0,Weapon Violations,2,2015-01,-75.078652,40.038245,2015,1,11,No,
1445047,35,3,2015-01-11 21:54:00,2015-01-11,21:54:00,21,201535002803,1700 BLOCK CONLYN ST,400.0,Aggravated Assault Firearm,20,2015-01,-75.149839,40.042958,2015,1,11,No,
211570,24,2,2015-01-11 23:48:00,2015-01-11,23:48:00,23,201524003233,FRANKFORD AV / E CLEARFIELD ST,1500.0,Weapon Violations,17,2015-01,-75.112777,39.991756,2015,1,11,No,
1583731,1,1,2015-01-12 00:22:00,2015-01-12,00:22:00,0,201501001209,2700 BLOCK CANTRELL TER,400.0,Aggravated Assault Firearm,1,2015-01,-75.191965,39.925579,2015,1,12,No,
1583842,1,1,2015-01-12 01:04:00,2015-01-12,01:04:00,1,201501001211,2700 BLOCK CANTRELL TER,400.0,Aggravated Assault Firearm,1,2015-01,-75.191965,39.925579,2015,1,12,No,
1583954,1,1,2015-01-12 01:05:00,2015-01-12,01:05:00,1,201501001212,2700 BLOCK CANTRELL TER,400.0,Aggravated Assault Firearm,1,2015-01,-75.191965,39.925579,2015,1,12,No,
323022,14,3,2015-01-12 02:48:00,2015-01-12,02:48:00,2,201514002481,7200 BLOCK ALLENS PL,400.0,Aggravated Assault Firearm,10,2015-01,-75.207377,40.045892,2015,1,12,No,
357762,12,3,2015-01-12 04:08:00,2015-01-12,04:08:00,4,201512002651,5300 BLOCK UPLAND ST,300.0,Robbery Firearm,9,2015-01,-75.219733,39.938509,2015,1,12,No,
301592,18,2,2015-01-12 05:31:00,2015-01-12,05:31:00,5,201518002218,100 BLOCK S 52ND ST,300.0,Robbery Firearm,14,2015-01,-75.22514,39.958456,2015,1,12,No,
585334,35,2,2015-01-12 17:33:00,2015-01-12,17:33:00,17,201535002934,4600 BLOCK N 11TH ST,300.0,Robbery Firearm,20,2015-01,-75.142949,40.022349,2015,1,12,No,
1247159,24,2,2015-01-12 21:19:00,2015-01-12,21:19:00,21,201524003384,3100 BLOCK CUSTER ST,400.0,Aggravated Assault Firearm,17,2015-01,-75.116544,39.996551,2015,1,12,No,
218891,39,2,2015-01-12 22:11:00,2015-01-12,22:11:00,22,201539002763,N 20TH ST / W ALLEGHENY AV,300.0,Robbery Firearm,21,2015-01,-75.162419,40.002832,2015,1,12,No,
2055218,22,2,2015-01-12 22:15:00,2015-01-12,22:15:00,22,201522003373,1700 BLOCK N NEWKIRK ST,300.0,Robbery Firearm,16,2015-01,-75.180531,39.98319,2015,1,12,No,
1368458,12,3,2015-01-12 22:32:00,2015-01-12,22:32:00,22,201512002811,6300 BLOCK GRAYS AVE,300.0,Robbery Firearm,9,2015-01,-75.230289,39.924331,2015,1,12,No,
1922123,17,3,2015-01-12 22:36:00,2015-01-12,22:36:00,22,201517001368,1500 BLOCK S TAYLOR ST,1500.0,Weapon Violations,13,2015-01,-75.185648,39.933662,2015,1,12,No,
1230188,3,3,2015-01-12 22:48:00,2015-01-12,22:48:00,22,201503002467,2400 BLOCK S 06TH ST,300.0,Robbery Firearm,3,2015-01,-75.157498,39.91894,2015,1,12,No,
211581,24,2,2015-01-12 23:03:00,2015-01-12,23:03:00,23,201524003409,3100 BLOCK CUSTER ST,1500.0,Weapon Violations,17,2015-01,-75.116506,39.99673,2015,1,12,No,
1979595,19,2,2015-01-13 01:46:00,2015-01-13,01:46:00,1,201519003511,1300 BLOCK N 51ST ST,300.0,Robbery Firearm,15,2015-01,-75.224098,39.973853,2015,1,13,No,
1184361,12,4,2015-01-13 02:57:00,2015-01-13,02:57:00,2,201512002850,5500 BLOCK ANGORA TER,300.0,Robbery Firearm,9,2015-01,-75.233783,39.94657,2015,1,13,No,
1255087,15,2,2015-01-13 08:43:00,2015-01-13,08:43:00,8,201515003672,5300 BLOCK N PENN ST,300.0,Robbery Firearm,11,2015-01,-75.079091,40.024997,2015,1,13,No,
173645,15,1,2015-01-13 09:16:00,2015-01-13,09:16:00,9,201515003692,4500 BLOCK ARAMINGO AVE,400.0,Aggravated Assault Firearm,11,2015-01,-75.07979,40.002402,2015,1,13,No,
825696,22,3,2015-01-13 09:17:00,2015-01-13,09:17:00,9,201522003474,1500 BLOCK N 12TH ST,100.0,Homicide - Criminal,16,2015-01,-75.154811,39.975419,2015,1,13,No,
1406176,14,1,2015-01-13 10:19:00,2015-01-13,10:19:00,10,201514002744,7100 BLOCK STENTON AVE,1500.0,Weapon Violations,10,2015-01,-75.163858,40.058682,2015,1,13,No,
223039,25,2,2015-01-13 11:24:00,2015-01-13,11:24:00,11,201525003148,4800 BLOCK B ST,1500.0,Weapon Violations,18,2015-01,-75.120188,40.022664,2015,1,13,No,
585466,39,2,2015-01-13 12:44:00,2015-01-13,12:44:00,12,201539002888,3800 BLOCK N SYDENHAM ST,300.0,Robbery Firearm,21,2015-01,-75.153056,40.012609,2015,1,13,No,
1360008,2,1,2015-01-13 12:45:00,2015-01-13,12:45:00,12,201502002250,5700 BLOCK LANGDON ST,1500.0,Weapon Violations,2,2015-01,-75.092304,40.03437,2015,1,13,No,
1417071,25,3,2015-01-13 14:34:00,2015-01-13,14:34:00,14,201525003191,3300 BLOCK D ST,400.0,Aggravated Assault Firearm,18,2015-01,-75.120737,39.999769,2015,1,13,No,
2055229,22,2,2015-01-13 16:42:00,2015-01-13,16:42:00,16,201522003595,3400 BLOCK RIDGE AVE,300.0,Robbery Firearm,16,2015-01,-75.187325,39.994972,2015,1,13,No,
1908861,12,4,2015-01-13 18:50:00,2015-01-13,18:50:00,18,201512003006,5500 BLOCK CHESTER AVE,400.0,Aggravated Assault Firearm,9,2015-01,-75.224271,39.938703,2015,1,13,No,
302429,24,1,2015-01-13 18:57:00,2015-01-13,18:57:00,18,201524003700,1500 BLOCK E LYCOMING ST,300.0,Robbery Firearm,17,2015-01,-75.098419,40.00863,2015,1,13,No,
360468,35,1,2015-01-13 19:01:00,2015-01-13,19:01:00,19,201535003364,6300 BLOCK N BROAD ST,300.0,Robbery Firearm,20,2015-01,-75.142261,40.050119,2015,1,13,No,
457953,24,2,2015-01-13 19:12:00,2015-01-13,19:12:00,19,201524003698,2900 BLOCK D ST,300.0,Robbery Firearm,17,2015-01,-75.121883,39.994382,2015,1,13,No,
2055240,22,4,2015-01-13 19:16:00,2015-01-13,19:16:00,19,201522003616,N 30TH ST / CECIL B MOORE AV,300.0,Robbery Firearm,16,2015-01,-75.183699,39.982015,2015,1,13,No,
36708,14,2,2015-01-13 19:16:00,2015-01-13,19:16:00,19,201514002840,5000 BLOCK GERMANTOWN AVE 1,400.0,Aggravated Assault Firearm,10,2015-01,-75.164665,40.029848,2015,1,13,No,
385407,39,2,2015-01-13 19:49:00,2015-01-13,19:49:00,19,201539002999,1700 BLOCK W ERIE AVE,1500.0,Weapon Violations,21,2015-01,-75.156064,40.009839,2015,1,13,No,
185930,25,4,2015-01-13 21:36:00,2015-01-13,21:36:00,21,201525003287,600 BLOCK W GLENWOOD AVE,300.0,Robbery Firearm,18,2015-01,-75.140067,40.001934,2015,1,13,No,
202235,35,3,2015-01-13 22:01:00,2015-01-13,22:01:00,22,201535003407,1900 BLOCK W CHEW AVE,300.0,Robbery Firearm,20,2015-01,-75.152616,40.040339,2015,1,13,Yes,La Salle University
571753,25,3,2015-01-13 22:42:00,2015-01-13,22:42:00,22,201525003301,500 BLOCK E WESTMORELAND ST,300.0,Robbery Firearm,18,2015-01,-75.119937,39.999024,2015,1,13,No,
88162,22,2,2015-01-13 22:47:00,2015-01-13,22:47:00,22,201522003714,2500 BLOCK W DAUPHIN ST,1500.0,Weapon Violations,16,2015-01,-75.173739,39.990134,2015,1,13,No,
173755,15,1,2015-01-13 22:54:00,2015-01-13,22:54:00,22,201515003950,1500 BLOCK WOMRATH ST,400.0,Aggravated Assault Firearm,11,2015-01,-75.092085,40.010325,2015,1,13,No,
1445058,35,2,2015-01-14 00:20:00,2015-01-14,00:20:00,0,201535003431,5200 BLOCK RISING SUN AVE,400.0,Aggravated Assault Firearm,20,2015-01,-75.119633,40.028899,2015,1,14,No,
223050,25,3,2015-01-14 00:39:00,2015-01-14,00:39:00,0,201525003335,600 BLOCK E CORNWALL ST,1500.0,Weapon Violations,18,2015-01,-75.117037,39.998993,2015,1,14,No,
218902,39,1,2015-01-14 05:28:00,2015-01-14,05:28:00,5,201539003137,100 BLOCK HANSBERRY ST,300.0,Robbery Firearm,21,2015-01,-75.168794,40.029403,2015,1,14,No,
2025183,19,2,2015-01-14 11:43:00,2015-01-14,11:43:00,11,201519004174,5700 BLOCK LANSDOWNE AVE,300.0,Robbery Firearm,15,2015-01,-75.23574,39.976384,2015,1,14,No,
1946252,9,1,2015-01-14 13:22:00,2015-01-14,13:22:00,13,201509001664,1500 BLOCK WALNUT ST,300.0,Robbery Firearm,8,2015-01,-75.166453,39.949671,2015,1,14,No,
1485906,15,2,2015-01-14 13:23:00,2015-01-14,13:23:00,13,201515004109,3000 BLOCK ROBBINS ST,1500.0,Weapon Violations,11,2015-01,-75.061989,40.029002,2015,1,14,No,
218913,39,3,2015-01-14 13:56:00,2015-01-14,13:56:00,13,201539003232,3200 BLOCK N 25TH ST,300.0,Robbery Firearm,21,2015-01,-75.170542,40.004308,2015,1,14,No,
1686501,3,3,2015-01-14 15:36:00,2015-01-14,15:36:00,15,201503002901,700 BLOCK DICKINSON ST,400.0,Aggravated Assault Firearm,3,2015-01,-75.156597,39.930154,2015,1,14,No,
51657,24,1,2015-01-14 16:00:00,2015-01-14,16:00:00,16,201524003968,4000 BLOCK K ST,300.0,Robbery Firearm,17,2015-01,-75.104852,40.00802,2015,1,14,No,
376682,16,1,2015-01-14 16:11:00,2015-01-14,16:11:00,16,201516002009,3900 BLOCK BROWN ST,400.0,Aggravated Assault Firearm,12,2015-01,-75.202052,39.967559,2015,1,14,No,
825708,19,1,2015-01-14 18:02:00,2015-01-14,18:02:00,18,201519004317,6500 BLOCK LANSDOWNE AVE,100.0,Homicide - Criminal,15,2015-01,-75.249304,39.974922,2015,1,14,No,
1200055,14,2,2015-01-14 18:40:00,2015-01-14,18:40:00,18,201514003090,MC MAHON AV / E PRICE ST,300.0,Robbery Firearm,10,2015-01,-75.167308,40.045006,2015,1,14,No,
51668,24,1,2015-01-14 18:41:00,2015-01-14,18:41:00,18,201524004025,4300 BLOCK O ST,300.0,Robbery Firearm,17,2015-01,-75.095856,40.011636,2015,1,14,No,
1441704,26,1,2015-01-14 19:51:00,2015-01-14,19:51:00,19,201526002461,2400 BLOCK N LAWRENCE ST,400.0,Aggravated Assault Firearm,19,2015-01,-75.140173,39.987549,2015,1,14,No,
51679,24,1,2015-01-14 19:52:00,2015-01-14,19:52:00,19,201524004046,1200 BLOCK E PIKE ST,300.0,Robbery Firearm,17,2015-01,-75.10513,40.006427,2015,1,14,No,
1441716,26,1,2015-01-14 20:00:00,2015-01-14,20:00:00,20,201526002464,2400 BLOCK N LAWRENCE ST,400.0,Aggravated Assault Firearm,19,2015-01,-75.140173,39.987549,2015,1,14,No,
449534,15,3,2015-01-14 22:41:00,2015-01-14,22:41:00,22,201515004258,2900 BLOCK COTTMAN AVE,300.0,Robbery Firearm,11,2015-01,-75.051868,40.043,2015,1,14,No,
51690,24,3,2015-01-14 23:04:00,2015-01-14,23:04:00,23,201524004102,2700 BLOCK E WESTMORELAND ST,300.0,Robbery Firearm,17,2015-01,-75.099543,39.984796,2015,1,14,No,
367611,15,1,2015-01-14 23:08:00,2015-01-14,23:08:00,23,201515004265,1600 BLOCK WAKELING ST,400.0,Aggravated Assault Firearm,11,2015-01,-75.079558,40.019903,2015,1,14,No,
212432,14,2,2015-01-14 23:33:00,2015-01-14,23:33:00,23,201514003155,4900 BLOCK RUBICAM ST,1500.0,Weapon Violations,10,2015-01,-75.157654,40.032887,2015,1,14,No,
1946174,8,3,2015-01-14 23:48:00,2015-01-14,23:48:00,23,201508001995,3200 BLOCK BYBERRY RD,300.0,Robbery Firearm,7,2015-01,-74.976868,40.09604,2015,1,14,No,
1910081,6,3,2015-01-15 02:47:00,2015-01-15,02:47:00,2,201506002070,200 BLOCK S 12TH ST,300.0,Robbery Firearm,5,2015-01,-75.160897,39.947501,2015,1,15,Yes,Thomas Jefferson University
36819,14,1,2015-01-15 05:38:00,2015-01-15,05:38:00,5,201514003195,1300 BLOCK NARRAGANSETT ST,400.0,Aggravated Assault Firearm,10,2015-01,-75.158354,40.055336,2015,1,15,No,
1760416,26,3,2015-01-15 09:01:00,2015-01-15,09:01:00,9,201526002558,600 BLOCK E THOMPSON ST,1500.0,Weapon Violations,19,2015-01,-75.127282,39.972994,2015,1,15,No,
666246,18,1,2015-01-15 10:08:00,2015-01-15,10:08:00,10,201518002932,5700 BLOCK OSAGE AVE,400.0,Aggravated Assault Firearm,14,2015-01,-75.237076,39.954296,2015,1,15,No,
1405556,12,3,2015-01-15 12:34:00,2015-01-15,12:34:00,12,201512003508,2400 BLOCK S 67TH ST,1500.0,Weapon Violations,9,2015-01,-75.23417,39.921546,2015,1,15,No,
542501,7,3,2015-01-15 13:15:00,2015-01-15,13:15:00,13,201507001346,PROCTOR RD / PIERMONT ST,300.0,Robbery Firearm,6,2015-01,-75.021852,40.113145,2015,1,15,No,
797988,35,1,2015-01-15 13:58:00,2015-01-15,13:58:00,13,201535003808,5600 BLOCK N 10TH ST,300.0,Robbery Firearm,20,2015-01,-75.137808,40.037926,2015,1,15,No,
1184372,12,4,2015-01-15 15:38:00,2015-01-15,15:38:00,15,201512003528,1300 BLOCK S 54TH ST,300.0,Robbery Firearm,9,2015-01,-75.225538,39.94184,2015,1,15,No,
543832,8,1,2015-01-15 16:50:00,2015-01-15,16:50:00,16,201508002091,2700 BLOCK AXE FACTORY RD,300.0,Robbery Firearm,7,2015-01,-75.033897,40.060092,2015,1,15,No,
1445068,35,2,2015-01-15 18:27:00,2015-01-15,18:27:00,18,201535003860,1300 BLOCK LINDLEY AVE 1,400.0,Aggravated Assault Firearm,20,2015-01,-75.145718,40.030299,2015,1,15,No,
375074,35,2,2015-01-15 18:35:00,2015-01-15,18:35:00,18,201535003863,1300 BLOCK WINDRIM AVE,1500.0,Weapon Violations,20,2015-01,-75.145053,40.030349,2015,1,15,No,
192433,26,3,2015-01-15 19:32:00,2015-01-15,19:32:00,19,201526002641,2600 BLOCK B ST,300.0,Robbery Firearm,19,2015-01,-75.127416,39.988827,2015,1,15,Yes,Temple University Medical
1445079,35,2,2015-01-15 21:46:00,2015-01-15,21:46:00,21,201535003911,4500 BLOCK N 17TH ST,400.0,Aggravated Assault Firearm,20,2015-01,-75.153405,40.022149,2015,1,15,No,
211271,35,2,2015-01-15 22:04:00,2015-01-15,22:04:00,22,201535003910,1300 BLOCK WINDRIM AVE,300.0,Robbery Firearm,20,2015-01,-75.144799,40.030495,2015,1,15,No,
173866,15,1,2015-01-15 22:43:00,2015-01-15,22:43:00,22,201515004608,1600 BLOCK WAKELING ST,400.0,Aggravated Assault Firearm,11,2015-01,-75.079558,40.019903,2015,1,15,No,
825719,18,2,2015-01-16 00:05:00,2015-01-16,00:05:00,0,201518003150,5500 BLOCK LUDLOW ST,100.0,Homicide - Criminal,14,2015-01,-75.231032,39.959922,2015,1,16,No,
1255098,15,2,2015-01-16 02:40:00,2015-01-16,02:40:00,2,201515004653,5800 BLOCK ERDRICK ST,300.0,Robbery Firearm,11,2015-01,-75.066377,40.021548,2015,1,16,No,
218924,39,3,2015-01-16 04:59:00,2015-01-16,04:59:00,5,201539003773,2400 BLOCK W CAMBRIA ST,300.0,Robbery Firearm,21,2015-01,-75.170091,39.999126,2015,1,16,No,
1108131,22,4,2015-01-16 08:10:00,2015-01-16,08:10:00,8,201522004401,2900 BLOCK NICHOLAS ST,400.0,Aggravated Assault Firearm,16,2015-01,-75.18208,39.98127,2015,1,16,No,
1360485,7,3,2015-01-16 08:15:00,2015-01-16,08:15:00,8,201507001432,10100 BLOCK BUSTLETON AVE,1500.0,Weapon Violations,6,2015-01,-75.027567,40.105301,2015,1,16,No,
1486357,17,2,2015-01-16 11:32:00,2015-01-16,11:32:00,11,201517001794,3300 BLOCK TASKER ST,1500.0,Weapon Violations,13,2015-01,-75.199238,39.934515,2015,1,16,No,
1184383,12,3,2015-01-16 11:35:00,2015-01-16,11:35:00,11,201512003731,5300 BLOCK GREENWAY AVE,300.0,Robbery Firearm,9,2015-01,-75.218955,39.938405,2015,1,16,No,
881633,19,2,2015-01-16 13:16:00,2015-01-16,13:16:00,13,201519004849,5500 BLOCK VINE ST,400.0,Aggravated Assault Firearm,15,2015-01,-75.230277,39.965362,2015,1,16,No,
1708453,26,2,2015-01-16 13:32:00,2015-01-16,13:32:00,13,201526002759,500 BLOCK MASTER ST,1500.0,Weapon Violations,19,2015-01,-75.145632,39.972739,2015,1,16,No,
51701,24,1,2015-01-16 14:37:00,2015-01-16,14:37:00,14,201524004638,3500 BLOCK RUTH ST,300.0,Robbery Firearm,17,2015-01,-75.105046,40.000506,2015,1,16,No,
1486327,16,2,2015-01-16 15:00:00,2015-01-16,15:00:00,15,201516002318,4900 BLOCK PARRISH ST,1500.0,Weapon Violations,12,2015-01,-75.218708,39.967317,2015,1,16,No,
825996,16,2,2015-01-16 15:24:00,2015-01-16,15:24:00,15,201516002319,N 46TH ST / MARKET ST,100.0,Homicide - Criminal,12,2015-01,-75.214022,39.958653,2015,1,16,No,
1360496,7,3,2015-01-16 16:52:00,2015-01-16,16:52:00,16,201507001487,1000 BLOCK BYBERRY RD,1500.0,Weapon Violations,6,2015-01,-75.009749,40.120315,2015,1,16,No,
51712,24,2,2015-01-16 16:53:00,2015-01-16,16:53:00,16,201524004675,800 BLOCK E ALLEGHENY AV AV,300.0,Robbery Firearm,17,2015-01,-75.115422,39.996717,2015,1,16,No,
825730,12,1,2015-01-16 17:51:00,2015-01-16,17:51:00,17,201512003803,7100 BLOCK THEODORE ST,100.0,Homicide - Criminal,9,2015-01,-75.238677,39.915043,2015,1,16,No,
36930,14,1,2015-01-16 18:31:00,2015-01-16,18:31:00,18,201514003574,900 BLOCK E WOODLAWN ST,400.0,Aggravated Assault Firearm,10,2015-01,-75.160825,40.047597,2015,1,16,No,
881744,19,2,2015-01-16 18:48:00,2015-01-16,18:48:00,18,201519004948,5500 BLOCK VINE ST,400.0,Aggravated Assault Firearm,15,2015-01,-75.230277,39.965362,2015,1,16,No,
558482,17,3,2015-01-16 19:35:00,2015-01-16,19:35:00,19,201517001852,1700 BLOCK S 20TH ST,400.0,Aggravated Assault Firearm,13,2015-01,-75.178231,39.930495,2015,1,16,No,
388691,3,3,2015-01-16 19:47:00,2015-01-16,19:47:00,19,201503003376,2700 BLOCK S DARIEN ST,300.0,Robbery Firearm,3,2015-01,-75.162487,39.914359,2015,1,16,No,
1957416,18,2,2015-01-16 20:19:00,2015-01-16,20:19:00,20,201518003354,4900 BLOCK LOCUST ST,300.0,Robbery Firearm,14,2015-01,-75.220393,39.955113,2015,1,16,No,
51723,24,1,2015-01-16 20:27:00,2015-01-16,20:27:00,20,201524004773,3900 BLOCK JASPER ST,300.0,Robbery Firearm,17,2015-01,-75.094253,40.004918,2015,1,16,No,
322367,26,1,2015-01-16 20:49:00,2015-01-16,20:49:00,20,201526002830,2500 BLOCK N 05TH ST,1500.0,Weapon Violations,19,2015-01,-75.14061,39.990469,2015,1,16,No,
558592,17,1,2015-01-16 21:00:00,2015-01-16,21:00:00,21,201517001858,1100 BLOCK S 22ND ST,400.0,Aggravated Assault Firearm,13,2015-01,-75.179898,39.939478,2015,1,16,No,
388802,12,3,2015-01-16 21:02:00,2015-01-16,21:02:00,21,201512003876,5800 BLOCK WOODLAND AVE,300.0,Robbery Firearm,9,2015-01,-75.22512,39.931996,2015,1,16,No,
1195425,2,3,2015-01-17 01:46:00,2015-01-17,01:46:00,1,201502003094,900 BLOCK BLEIGH AVE,300.0,Robbery Firearm,2,2015-01,-75.083517,40.063713,2015,1,17,No,
2055251,22,1,2015-01-17 03:19:00,2015-01-17,03:19:00,3,201522004725,N VAN PELT ST / W YORK ST,300.0,Robbery Firearm,16,2015-01,-75.167527,39.990918,2015,1,17,No,
1108242,22,1,2015-01-17 03:22:00,2015-01-17,03:22:00,3,201522004726,N 22ND ST / W DAUPHIN ST,400.0,Aggravated Assault Firearm,16,2015-01,-75.168896,39.989559,2015,1,17,No,
285490,12,3,2015-01-17 09:07:00,2015-01-17,09:07:00,9,201512003967,2200 BLOCK S 65TH ST,400.0,Aggravated Assault Firearm,9,2015-01,-75.234358,39.925543,2015,1,17,No,
357919,39,1,2015-01-17 09:23:00,2015-01-17,09:23:00,9,201539004138,5000 BLOCK WAYNE AVE,300.0,Robbery Firearm,21,2015-01,-75.168312,40.025787,2015,1,17,No,
1743087,25,3,2015-01-17 12:32:00,2015-01-17,12:32:00,12,201525004299,100 BLOCK W GURNEY ST,1500.0,Weapon Violations,18,2015-01,-75.130222,39.994374,2015,1,17,No,
1852979,14,1,2015-01-17 19:48:00,2015-01-17,19:48:00,19,201514003860,1200 BLOCK E CHELTEN AVE,300.0,Robbery Firearm,10,2015-01,-75.15833,40.051882,2015,1,17,No,
211592,24,2,2015-01-17 20:36:00,2015-01-17,20:36:00,20,201524005097,2000 BLOCK E CLEMENTINE ST,1500.0,Weapon Violations,17,2015-01,-75.113221,39.993193,2015,1,17,No,
1946141,7,1,2015-01-17 21:06:00,2015-01-17,21:06:00,21,201507001602,8300 BLOCK BUSTLETON AVE,300.0,Robbery Firearm,6,2015-01,-75.05085,40.069474,2015,1,17,No,
1946285,12,3,2015-01-17 21:06:00,2015-01-17,21:06:00,21,201512004127,5800 BLOCK WOODLAND AVE,300.0,Robbery Firearm,9,2015-01,-75.22512,39.931996,2015,1,17,No,
185941,25,4,2015-01-17 21:46:00,2015-01-17,21:46:00,21,201525004480,3600 BLOCK N 13TH ST,300.0,Robbery Firearm,18,2015-01,-75.149109,40.00894,2015,1,17,No,
173977,15,1,2015-01-18 01:24:00,2015-01-18,01:24:00,1,201515005298,1500 BLOCK ADAMS AVE 1,400.0,Aggravated Assault Firearm,11,2015-01,-75.091804,40.00876,2015,1,18,No,
825741,15,1,2015-01-18 01:25:00,2015-01-18,01:25:00,1,201515005299,1500 BLOCK ADAMS AVE 1,100.0,Homicide - Criminal,11,2015-01,-75.091804,40.00876,2015,1,18,No,
1417082,25,2,2015-01-18 01:34:00,2015-01-18,01:34:00,1,201525004547,4300 BLOCK N ORIANNA ST,400.0,Aggravated Assault Firearm,18,2015-01,-75.132331,40.016778,2015,1,18,No,
185952,25,4,2015-01-18 03:19:00,2015-01-18,03:19:00,3,201525004573,3600 BLOCK OLD YORK RD,300.0,Robbery Firearm,18,2015-01,-75.147669,40.008747,2015,1,18,No,
111208,39,2,2015-01-18 04:59:00,2015-01-18,04:59:00,4,201539004421,1900 BLOCK W ERIE AVE 1,400.0,Aggravated Assault Firearm,21,2015-01,-75.160571,40.010515,2015,1,18,No,
1417093,25,4,2015-01-18 07:00:00,2015-01-18,07:00:00,7,201525004588,3600 BLOCK OLD YORK RD,400.0,Aggravated Assault Firearm,18,2015-01,-75.147669,40.008747,2015,1,18,No,
1686612,3,3,2015-01-18 08:28:00,2015-01-18,08:28:00,8,201503003714,1800 BLOCK S 07TH ST,400.0,Aggravated Assault Firearm,3,2015-01,-75.157453,39.926534,2015,1,18,No,
308727,22,4,2015-01-18 12:40:00,2015-01-18,12:40:00,12,201522005042,2800 BLOCK W GIRARD AVE,300.0,Robbery Firearm,16,2015-01,-75.181916,39.97433,2015,1,18,No,
1908972,12,2,2015-01-18 13:28:00,2015-01-18,13:28:00,13,201512004233,2200 BLOCK S 70TH ST,400.0,Aggravated Assault Firearm,9,2015-01,-75.240283,39.919555,2015,1,18,No,
449623,17,3,2015-01-18 13:57:00,2015-01-18,13:57:00,13,201517002070,1700 BLOCK S 20TH ST,300.0,Robbery Firearm,13,2015-01,-75.178498,39.9293,2015,1,18,No,
360302,25,4,2015-01-18 15:43:00,2015-01-18,15:43:00,15,201525004652,3600 BLOCK GERMANTOWN AVE,300.0,Robbery Firearm,18,2015-01,-75.150449,40.007847,2015,1,18,Yes,Temple University
1946096,6,3,2015-01-18 15:52:00,2015-01-18,15:52:00,15,201506002700,800 BLOCK CHESTNUT ST,300.0,Robbery Firearm,5,2015-01,-75.154288,39.949627,2015,1,18,No,
374542,19,2,2015-01-18 16:04:00,2015-01-18,16:04:00,16,201519005429,200 BLOCK N 61ST ST,400.0,Aggravated Assault Firearm,15,2015-01,-75.24186,39.966681,2015,1,18,No,
417219,35,3,2015-01-18 17:53:00,2015-01-18,17:53:00,17,201535004636,6000 BLOCK OGONTZ AVE,300.0,Robbery Firearm,20,2015-01,-75.150993,40.047474,2015,1,18,No,
1207669,2,3,2015-01-18 18:22:00,2015-01-18,18:22:00,18,201502003395,7100 BLOCK CALVERT ST,300.0,Robbery Firearm,2,2015-01,-75.059008,40.042534,2015,1,18,No,
174088,15,1,2015-01-18 20:15:00,2015-01-18,20:15:00,20,201515005495,4600 BLOCK N PENN ST,400.0,Aggravated Assault Firearm,11,2015-01,-75.085807,40.017156,2015,1,18,No,
571577,22,1,2015-01-18 20:28:00,2015-01-18,20:28:00,20,201522005155,1600 BLOCK W SUSQUEHANNA AVE,300.0,Robbery Firearm,16,2015-01,-75.160863,39.986938,2015,1,18,No,
1825675,1,1,2015-01-18 21:07:00,2015-01-18,21:07:00,21,201501002032,1900 BLOCK S 15TH ST,300.0,Robbery Firearm,1,2015-01,-75.170911,39.927014,2015,1,18,No,
1838962,17,1,2015-01-18 22:02:00,2015-01-18,22:02:00,22,201517002112,900 BLOCK S 17TH ST,300.0,Robbery Firearm,13,2015-01,-75.171183,39.94062,2015,1,18,No,
2733,1,1,2015-01-18 22:15:00,2015-01-18,22:15:00,22,201501002037,S 19TH ST / SHUNK ST,300.0,Robbery Firearm,1,2015-01,-75.179019,39.919189,2015,1,18,No,
1445090,35,3,2015-01-18 22:19:00,2015-01-18,22:19:00,22,201535004717,1900 BLOCK SPARKS ST,400.0,Aggravated Assault Firearm,20,2015-01,-75.152661,40.047894,2015,1,18,No,
1825687,1,2,2015-01-18 22:31:00,2015-01-18,22:31:00,22,201501002040,2800 BLOCK S 16TH ST 2,300.0,Robbery Firearm,1,2015-01,-75.174849,39.91467,2015,1,18,No,
218935,39,1,2015-01-18 22:35:00,2015-01-18,22:35:00,22,201539004574,3400 BLOCK FOX ST,300.0,Robbery Firearm,21,2015-01,-75.180076,40.015991,2015,1,18,No,
1108353,22,1,2015-01-19 02:09:00,2015-01-19,02:09:00,2,201522005230,2500 BLOCK N JESSUP ST,400.0,Aggravated Assault Firearm,16,2015-01,-75.150523,39.9903,2015,1,19,No,
1108445,22,1,2015-01-19 12:14:00,2015-01-19,12:14:00,12,201522005291,2500 BLOCK N 19TH ST,400.0,Aggravated Assault Firearm,16,2015-01,-75.163233,39.991941,2015,1,19,No,
360479,35,1,2015-01-19 14:25:00,2015-01-19,14:25:00,14,201535004823,6200 BLOCK N FRONT ST,300.0,Robbery Firearm,20,2015-01,-75.119299,40.045004,2015,1,19,No,
487098,24,1,2015-01-19 14:34:00,2015-01-19,14:34:00,14,201524005532,3200 BLOCK H ST,400.0,Aggravated Assault Firearm,17,2015-01,-75.113384,39.99657,2015,1,19,No,
825752,22,4,2015-01-19 19:58:00,2015-01-19,19:58:00,19,201522005394,1700 BLOCK N 31ST ST,100.0,Homicide - Criminal,16,2015-01,-75.184881,39.983132,2015,1,19,No,
1108533,22,4,2015-01-19 20:22:00,2015-01-19,20:22:00,20,201522005395,1700 BLOCK N 31ST ST,400.0,Aggravated Assault Firearm,16,2015-01,-75.184893,39.983076,2015,1,19,No,
1108644,22,4,2015-01-19 20:26:00,2015-01-19,20:26:00,20,201522005397,3000 BLOCK CLIFFORD ST,400.0,Aggravated Assault Firearm,16,2015-01,-75.184862,39.98293,2015,1,19,No,
1621495,15,1,2015-01-19 20:29:00,2015-01-19,20:29:00,20,201515005776,4700 BLOCK N PENN ST,400.0,Aggravated Assault Firearm,11,2015-01,-75.085299,40.017848,2015,1,19,No,
218946,39,1,2015-01-19 21:23:00,2015-01-19,21:23:00,21,201539004807,3100 BLOCK BERKELEY DR,300.0,Robbery Firearm,21,2015-01,-75.177235,40.012349,2015,1,19,No,
111230,39,1,2015-01-19 21:25:00,2015-01-19,21:25:00,21,201539004790,3100 BLOCK BERKELEY DR,400.0,Aggravated Assault Firearm,21,2015-01,-75.177235,40.012349,2015,1,19,No,
111219,39,1,2015-01-19 21:25:00,2015-01-19,21:25:00,21,201539004789,3100 BLOCK BERKELEY DR,400.0,Aggravated Assault Firearm,21,2015-01,-75.177235,40.012349,2015,1,19,No,
1247170,24,1,2015-01-19 22:14:00,2015-01-19,22:14:00,22,201524005671,3400 BLOCK JASPER ST,400.0,Aggravated Assault Firearm,17,2015-01,-75.107498,39.997704,2015,1,19,No,
192444,26,3,2015-01-19 22:47:00,2015-01-19,22:47:00,22,201526003313,2300 BLOCK JASPER ST,300.0,Robbery Firearm,19,2015-01,-75.132212,39.984795,2015,1,19,No,
1417106,25,2,2015-01-19 23:40:00,2015-01-19,23:40:00,23,201525005056,300 BLOCK E ROOSEVELT BLVD,400.0,Aggravated Assault Firearm,18,2015-01,-75.11791,40.026099,2015,1,19,No,
771474,39,2,2015-01-20 00:49:00,2015-01-20,00:49:00,0,201539004856,1900 BLOCK W ERIE AVE,400.0,Aggravated Assault Firearm,21,2015-01,-75.160571,40.010515,2015,1,20,No,
211603,24,1,2015-01-20 01:27:00,2015-01-20,01:27:00,1,201524005699,1800 BLOCK E TIOGA ST,1500.0,Weapon Violations,17,2015-01,-75.105794,39.999639,2015,1,20,No,
328553,22,1,2015-01-20 03:48:00,2015-01-20,03:48:00,3,201522005511,BROAD/LEHIGH AVE,1500.0,Weapon Violations,16,2015-01,-75.154589,39.99394,2015,1,20,No,
1255109,15,2,2015-01-20 09:20:00,2015-01-20,09:20:00,9,201515005925,1300 BLOCK BRILL ST,300.0,Robbery Firearm,11,2015-01,-75.078944,40.025659,2015,1,20,No,
192455,26,2,2015-01-20 09:47:00,2015-01-20,09:47:00,9,201526003367,300 BLOCK W GEORGE ST,300.0,Robbery Firearm,19,2015-01,-75.141976,39.967688,2015,1,20,No,
1754242,25,3,2015-01-20 10:52:00,2015-01-20,10:52:00,10,201525005115,100 BLOCK W CAMBRIA ST,1500.0,Weapon Violations,18,2015-01,-75.131048,39.994034,2015,1,20,No,
523159,25,1,2015-01-20 11:32:00,2015-01-20,11:32:00,11,201525005132,3800 BLOCK N BROAD ST,1500.0,Weapon Violations,18,2015-01,-75.150725,40.011366,2015,1,20,No,
1486439,17,2,2015-01-20 12:19:00,2015-01-20,12:19:00,12,201517002279,1600 BLOCK S 32ND ST,1500.0,Weapon Violations,13,2015-01,-75.197596,39.934238,2015,1,20,No,
42950,16,2,2015-01-20 12:25:00,2015-01-20,12:25:00,12,201516002811,BROOKLYN ST / OGDEN ST,1500.0,Weapon Violations,12,2015-01,-75.209011,39.968887,2015,1,20,No,
1922134,17,3,2015-01-20 12:59:00,2015-01-20,12:59:00,12,201517002298,S 21ST ST / DICKINSON ST,1500.0,Weapon Violations,13,2015-01,-75.179556,39.933187,2015,1,20,No,
523194,26,1,2015-01-20 14:30:00,2015-01-20,14:30:00,14,201526003417,700 BLOCK W CUMBERLAND ST,1500.0,Weapon Violations,19,2015-01,-75.145186,39.989534,2015,1,20,No,
1909083,12,4,2015-01-20 14:48:00,2015-01-20,14:48:00,14,201512004650,5800 BLOCK SPRINGFIELD AVE,400.0,Aggravated Assault Firearm,9,2015-01,-75.23102,39.935781,2015,1,20,No,
1959437,18,3,2015-01-20 15:32:00,2015-01-20,15:32:00,15,201518004114,100 BLOCK S 46TH ST,300.0,Robbery Firearm,14,2015-01,-75.213458,39.956713,2015,1,20,No,
1909304,12,4,2015-01-20 15:43:00,2015-01-20,15:43:00,15,201512004653,5800 BLOCK SPRINGFIELD AVE,400.0,Aggravated Assault Firearm,9,2015-01,-75.23102,39.935781,2015,1,20,No,
1909193,12,4,2015-01-20 15:43:00,2015-01-20,15:43:00,15,201512004652,5800 BLOCK SPRINGFIELD AVE,400.0,Aggravated Assault Firearm,9,2015-01,-75.23102,39.935781,2015,1,20,No,
1184394,12,3,2015-01-20 16:09:00,2015-01-20,16:09:00,16,201512004662,5800 BLOCK WOODLAND AVE,300.0,Robbery Firearm,9,2015-01,-75.224583,39.932372,2015,1,20,No,
1980628,19,2,2015-01-20 18:28:00,2015-01-20,18:28:00,18,201519006021,5600 BLOCK RACE ST,1500.0,Weapon Violations,15,2015-01,-75.232254,39.964049,2015,1,20,No,
449545,15,3,2015-01-20 18:28:00,2015-01-20,18:28:00,18,201515006137,4500 BLOCK COTTMAN AVE 2,300.0,Robbery Firearm,11,2015-01,-75.036117,40.031209,2015,1,20,No,
1368225,3,3,2015-01-20 18:49:00,2015-01-20,18:49:00,18,201503004198,1200 BLOCK TITAN ST,300.0,Robbery Firearm,3,2015-01,-75.164158,39.93414,2015,1,20,No,
1836923,15,2,2015-01-20 19:01:00,2015-01-20,19:01:00,19,201515006146,5400 BLOCK OXFORD AVE,300.0,Robbery Firearm,11,2015-01,-75.084973,40.030784,2015,1,20,No,
218957,39,2,2015-01-20 19:18:00,2015-01-20,19:18:00,19,201539005052,3800 BLOCK ARCHER ST,300.0,Robbery Firearm,21,2015-01,-75.159732,40.011989,2015,1,20,No,
308838,24,3,2015-01-20 19:47:00,2015-01-20,19:47:00,19,201524005928,3300 BLOCK ARAMINGO AVE,300.0,Robbery Firearm,17,2015-01,-75.101642,39.990925,2015,1,20,No,
360490,35,2,2015-01-20 19:53:00,2015-01-20,19:53:00,19,201535005223,5300 BLOCK N 05TH ST,300.0,Robbery Firearm,20,2015-01,-75.131514,40.032094,2015,1,20,No,
2025194,19,1,2015-01-20 20:22:00,2015-01-20,20:22:00,20,201519006056,6500 BLOCK HAVERFORD AVE,300.0,Robbery Firearm,15,2015-01,-75.248891,39.972304,2015,1,20,No,
585345,35,3,2015-01-20 20:48:00,2015-01-20,20:48:00,20,201535005236,2000 BLOCK W SPENCER AVE,300.0,Robbery Firearm,20,2015-01,-75.153621,40.047332,2015,1,20,No,
2025205,19,2,2015-01-20 22:04:00,2015-01-20,22:04:00,22,201519006090,5800 BLOCK W THOMPSON ST,300.0,Robbery Firearm,15,2015-01,-75.235998,39.971841,2015,1,20,No,
51734,24,2,2015-01-20 22:27:00,2015-01-20,22:27:00,22,201524005965,1900 BLOCK ORLEANS ST,300.0,Robbery Firearm,17,2015-01,-75.117389,39.992434,2015,1,20,No,
385418,39,2,2015-01-20 22:36:00,2015-01-20,22:36:00,22,201539005131,4200 BLOCK N BROAD ST,1500.0,Weapon Violations,21,2015-01,-75.149523,40.017462,2015,1,20,No,
192466,26,3,2015-01-20 22:49:00,2015-01-20,22:49:00,22,201526003516,2500 BLOCK N FRONT ST,300.0,Robbery Firearm,19,2015-01,-75.131467,39.987987,2015,1,20,No,
1979751,22,1,2015-01-20 22:57:00,2015-01-20,22:57:00,22,201522005810,2300 BLOCK N 20TH ST 3B,300.0,Robbery Firearm,16,2015-01,-75.165187,39.990431,2015,1,20,No,
218968,39,3,2015-01-20 23:13:00,2015-01-20,23:13:00,23,201539005142,2500 BLOCK W ALLEGHENY AVE,300.0,Robbery Firearm,21,2015-01,-75.170681,40.003896,2015,1,20,No,
385429,39,3,2015-01-21 00:10:00,2015-01-21,00:10:00,0,201539005149,3200 BLOCK N 25TH ST,1500.0,Weapon Violations,21,2015-01,-75.17073,40.003914,2015,1,21,No,
2055262,22,2,2015-01-21 03:00:00,2015-01-21,03:00:00,3,201522005842,2400 BLOCK N HOLLYWOOD ST,300.0,Robbery Firearm,16,2015-01,-75.180212,39.992608,2015,1,21,No,
218980,39,3,2015-01-21 08:19:00,2015-01-21,08:19:00,8,201539005186,2100 BLOCK W TORONTO ST,300.0,Robbery Firearm,21,2015-01,-75.164866,40.0007,2015,1,21,No,
1360507,7,3,2015-01-21 08:35:00,2015-01-21,08:35:00,8,201507001961,10100 BLOCK BUSTLETON AVE,1500.0,Weapon Violations,6,2015-01,-75.026973,40.106702,2015,1,21,No,
1360352,5,2,2015-01-21 09:19:00,2015-01-21,09:19:00,9,201505001142,6400 BLOCK RIDGE AVE,1500.0,Weapon Violations,4,2015-01,-75.222793,40.038066,2015,1,21,No,
1934321,18,3,2015-01-21 10:11:00,2015-01-21,10:11:00,10,201518004292,4700 BLOCK PINE ST,1500.0,Weapon Violations,14,2015-01,-75.217763,39.952446,2015,1,21,No,
1957427,18,1,2015-01-21 13:05:00,2015-01-21,13:05:00,13,201518004320,5800 BLOCK SPRUCE ST,300.0,Robbery Firearm,14,2015-01,-75.239304,39.956203,2015,1,21,No,
1417117,25,4,2015-01-21 14:59:00,2015-01-21,14:59:00,15,201525005425,500 BLOCK W SOMERSET ST,400.0,Aggravated Assault Firearm,18,2015-01,-75.140617,39.993736,2015,1,21,No,
375085,35,1,2015-01-21 16:34:00,2015-01-21,16:34:00,16,201535005388,5600 BLOCK N 10TH ST,1500.0,Weapon Violations,20,2015-01,-75.137992,40.037597,2015,1,21,No,
1831559,9,1,2015-01-21 17:29:00,2015-01-21,17:29:00,17,201509002637,100 BLOCK S 16TH ST,300.0,Robbery Firearm,8,2015-01,-75.1673,39.95052,2015,1,21,No,
202246,35,1,2015-01-21 19:17:00,2015-01-21,19:17:00,19,201535005433,6100 BLOCK N BROAD ST,300.0,Robbery Firearm,20,2015-01,-75.143206,40.045741,2015,1,21,No,
2055273,22,1,2015-01-21 19:33:00,2015-01-21,19:33:00,19,201522006024,1700 BLOCK ARLINGTON ST,300.0,Robbery Firearm,16,2015-01,-75.162621,39.983457,2015,1,21,No,
1946107,6,1,2015-01-21 20:04:00,2015-01-21,20:04:00,20,201506003183,300 BLOCK SPRING GARDEN ST,300.0,Robbery Firearm,5,2015-01,-75.143406,39.960966,2015,1,21,No,
2025217,19,2,2015-01-21 20:06:00,2015-01-21,20:06:00,20,201519006366,600 BLOCK N 52ND ST,300.0,Robbery Firearm,15,2015-01,-75.225437,39.969548,2015,1,21,No,
1108754,22,2,2015-01-21 20:29:00,2015-01-21,20:29:00,20,201522006039,2300 BLOCK EDGLEY ST,400.0,Aggravated Assault Firearm,16,2015-01,-75.170997,39.987192,2015,1,21,Yes,Temple University
449445,14,1,2015-01-21 20:36:00,2015-01-21,20:36:00,20,201514004817,1200 BLOCK E STAFFORD ST,300.0,Robbery Firearm,10,2015-01,-75.159227,40.052725,2015,1,21,No,
1959448,18,1,2015-01-21 21:37:00,2015-01-21,21:37:00,21,201518004425,100 BLOCK S 60TH ST,300.0,Robbery Firearm,14,2015-01,-75.241331,39.959511,2015,1,21,No,
185964,25,2,2015-01-21 21:50:00,2015-01-21,21:50:00,21,201525005512,300 BLOCK E ROCKLAND ST,300.0,Robbery Firearm,18,2015-01,-75.118291,40.023983,2015,1,21,No,
360413,26,1,2015-01-21 22:08:00,2015-01-21,22:08:00,22,201526003743,2600 BLOCK GERMANTOWN AVE,300.0,Robbery Firearm,19,2015-01,-75.147878,39.992926,2015,1,21,No,
192477,26,2,2015-01-21 22:37:00,2015-01-21,22:37:00,22,201526003746,HOPE ST / W GIRARD AV,300.0,Robbery Firearm,19,2015-01,-75.136793,39.968999,2015,1,21,No,
1922145,17,3,2015-01-21 22:43:00,2015-01-21,22:43:00,22,201517002506,2100 BLOCK TASKER ST,1500.0,Weapon Violations,13,2015-01,-75.179885,39.93192,2015,1,21,No,
117254,25,2,2015-01-21 22:51:00,2015-01-21,22:51:00,22,201525005519,100 BLOCK E ROOSEVELT BLVD,300.0,Robbery Firearm,18,2015-01,-75.122948,40.02537,2015,1,21,No,
218991,39,2,2015-01-22 00:10:00,2015-01-22,00:10:00,0,201539005422,4400 BLOCK N GRATZ ST,300.0,Robbery Firearm,21,2015-01,-75.156096,40.022076,2015,1,22,No,
51745,24,2,2015-01-22 02:49:00,2015-01-22,02:49:00,2,201524006280,1900 BLOCK E MONMOUTH ST,300.0,Robbery Firearm,17,2015-01,-75.117739,39.990925,2015,1,22,No,
800809,25,4,2015-01-22 06:13:00,2015-01-22,06:13:00,6,201525005565,800 BLOCK W INDIANA AVE,300.0,Robbery Firearm,18,2015-01,-75.144338,39.997292,2015,1,22,No,
1485917,15,3,2015-01-22 09:25:00,2015-01-22,09:25:00,9,201515006541,3200 BLOCK RYAN AVE,1500.0,Weapon Violations,11,2015-01,-75.044345,40.041968,2015,1,22,No,
1200066,14,2,2015-01-22 09:27:00,2015-01-22,09:27:00,9,201514004923,5300 BLOCK MAGNOLIA ST,300.0,Robbery Firearm,10,2015-01,-75.164771,40.039772,2015,1,22,No,
301547,17,1,2015-01-22 09:47:00,2015-01-22,09:47:00,9,201517002537,1800 BLOCK CHRISTIAN ST,300.0,Robbery Firearm,13,2015-01,-75.174219,39.941066,2015,1,22,No,
2055297,22,3,2015-01-22 11:02:00,2015-01-22,11:02:00,11,201522006154,1500 BLOCK CARLISLE ST,300.0,Robbery Firearm,16,2015-01,-75.159467,39.97599,2015,1,22,Yes,Temple University
2055284,22,1,2015-01-22 11:12:00,2015-01-22,11:12:00,11,201522006152,1600 BLOCK FRENCH ST,300.0,Robbery Firearm,16,2015-01,-75.159825,39.986221,2015,1,22,No,
825763,1,1,2015-01-22 16:23:00,2015-01-22,16:23:00,16,201501002502,1400 BLOCK RITNER ST,100.0,Homicide - Criminal,1,2015-01,-75.17202,39.9208,2015,1,22,Yes,Thomas Jefferson University
1679115,18,2,2015-01-22 18:27:00,2015-01-22,18:27:00,18,201518004586,5200 BLOCK LARCHWOOD AVE OOD AVE,1500.0,Weapon Violations,14,2015-01,-75.226609,39.951968,2015,1,22,No,
1979606,19,3,2015-01-22 19:27:00,2015-01-22,19:27:00,19,201519006660,5200 BLOCK JEFFERSON ST 1,300.0,Robbery Firearm,15,2015-01,-75.227509,39.980285,2015,1,22,No,
570686,39,3,2015-01-22 20:40:00,2015-01-22,20:40:00,20,201539005675,2400 BLOCK W CLEARFIELD ST,300.0,Robbery Firearm,21,2015-01,-75.171022,40.002267,2015,1,22,No,
388702,3,3,2015-01-22 21:03:00,2015-01-22,21:03:00,21,201503004592,2100 BLOCK S 10TH ST,300.0,Robbery Firearm,3,2015-01,-75.162918,39.923059,2015,1,22,No,
1439224,12,4,2015-01-22 21:12:00,2015-01-22,21:12:00,21,201512005213,5600 BLOCK WHITBY AVE,1500.0,Weapon Violations,9,2015-01,-75.232818,39.943093,2015,1,22,No,
375096,35,2,2015-01-22 22:29:00,2015-01-22,22:29:00,22,201535005738,N BROAD ST / W ROOSEVELT BLVD,1500.0,Weapon Violations,18,2015-01,-75.149349,40.017967,2015,1,22,No,
174199,15,1,2015-01-22 22:54:00,2015-01-22,22:54:00,22,201515006801,4800 BLOCK JACKSON PL,400.0,Aggravated Assault Firearm,11,2015-01,-75.076644,40.014725,2015,1,22,No,
1405433,9,2,2015-01-23 09:08:00,2015-01-23,09:08:00,9,201509002831,500 BLOCK N BROAD ST,1500.0,Weapon Violations,8,2015-01,-75.161281,39.963292,2015,1,23,No,
1507358,22,3,2015-01-23 09:52:00,2015-01-23,09:52:00,9,201522006427,N 18TH ST / W OXFORD ST,1500.0,Weapon Violations,16,2015-01,-75.164583,39.978104,2015,1,23,No,
1760427,26,1,2015-01-23 09:55:00,2015-01-23,09:55:00,9,201526004013,2300 BLOCK N 04TH ST,1500.0,Weapon Violations,19,2015-01,-75.139467,39.986501,2015,1,23,No,
1485928,15,3,2015-01-23 12:13:00,2015-01-23,12:13:00,12,201515006933,6800 BLOCK COTTAGE ST,1500.0,Weapon Violations,11,2015-01,-75.047373,40.028296,2015,1,23,No,
1506536,19,1,2015-01-23 13:12:00,2015-01-23,13:12:00,13,201519006846,5900 BLOCK MALVERN AVE,1500.0,Weapon Violations,15,2015-01,-75.241495,39.986268,2015,1,23,No,
385440,39,3,2015-01-23 13:25:00,2015-01-23,13:25:00,13,201539005843,2700 BLOCK N HEMBERGER ST,1500.0,Weapon Violations,21,2015-01,-75.168533,39.995863,2015,1,23,No,
328564,22,1,2015-01-23 16:38:00,2015-01-23,16:38:00,16,201522006548,N 22ND ST / EDGLEY ST,1500.0,Weapon Violations,16,2015-01,-75.169449,39.987031,2015,1,23,No,
328653,24,1,2015-01-23 17:07:00,2015-01-23,17:07:00,17,201524006780,4000 BLOCK KENSINGTON AVE,1500.0,Weapon Violations,17,2015-01,-75.094861,40.006726,2015,1,23,No,
825774,22,1,2015-01-23 17:50:00,2015-01-23,17:50:00,17,201522006586,2000 BLOCK N LAMBERT ST,100.0,Homicide - Criminal,16,2015-01,-75.167541,39.984862,2015,1,23,No,
1230411,3,3,2015-01-24 02:01:00,2015-01-24,02:01:00,2,201503004878,1600 BLOCK S 10TH ST,300.0,Robbery Firearm,3,2015-01,-75.161589,39.929593,2015,1,24,No,
1230523,3,3,2015-01-24 03:04:00,2015-01-24,03:04:00,3,201503004885,2300 BLOCK S MARSHALL ST,300.0,Robbery Firearm,3,2015-01,-75.157792,39.919678,2015,1,24,No,
825785,25,2,2015-01-24 04:38:00,2015-01-24,04:38:00,4,201525006239,4200 BLOCK MACALESTER ST,100.0,Homicide - Criminal,18,2015-01,-75.122248,40.013513,2015,1,24,No,
1957439,18,3,2015-01-24 05:38:00,2015-01-24,05:38:00,5,201518004958,4900 BLOCK SANSOM ST,300.0,Robbery Firearm,14,2015-01,-75.219491,39.956947,2015,1,24,No,
1934332,18,2,2015-01-24 07:04:00,2015-01-24,07:04:00,7,201518004963,200 BLOCK S 56TH ST,1500.0,Weapon Violations,14,2015-01,-75.233852,39.956518,2015,1,24,No,
1960847,18,2,2015-01-24 11:35:00,2015-01-24,11:35:00,11,201518005005,5200 BLOCK LOCUST ST,300.0,Robbery Firearm,14,2015-01,-75.22633,39.955937,2015,1,24,No,
1934343,18,2,2015-01-24 11:43:00,2015-01-24,11:43:00,11,201518005003,5500 BLOCK PINE ST,1500.0,Weapon Violations,14,2015-01,-75.232191,39.954225,2015,1,24,No,
1255120,15,2,2015-01-24 13:07:00,2015-01-24,13:07:00,13,201515007331,5400 BLOCK HARBISON AVE,300.0,Robbery Firearm,11,2015-01,-75.06819,40.014885,2015,1,24,No,
1255132,15,1,2015-01-24 13:17:00,2015-01-24,13:17:00,13,201515007333,5200 BLOCK FRANKFORD AVE,300.0,Robbery Firearm,11,2015-01,-75.078182,40.022416,2015,1,24,No,
174310,15,1,2015-01-24 13:18:00,2015-01-24,13:18:00,13,201515007334,RAMONA AV / ADAMS AV,400.0,Aggravated Assault Firearm,11,2015-01,-75.095538,40.024138,2015,1,24,No,
1255143,15,1,2015-01-24 14:05:00,2015-01-24,14:05:00,14,201515007342,5200 BLOCK FRANKFORD AVE,300.0,Robbery Firearm,11,2015-01,-75.078182,40.022416,2015,1,24,No,
378758,22,1,2015-01-24 17:17:00,2015-01-24,17:17:00,17,201522006858,2100 BLOCK N GRATZ ST,400.0,Aggravated Assault Firearm,16,2015-01,-75.163577,39.986192,2015,1,24,No,
1960858,18,3,2015-01-24 17:45:00,2015-01-24,17:45:00,17,201518005067,3700 BLOCK CHESTNUT ST,300.0,Robbery Firearm,14,2015-01,-75.196513,39.954882,2015,1,24,Yes,University of Pennsylvania
185975,25,1,2015-01-24 18:28:00,2015-01-24,18:28:00,18,201525006359,3900 BLOCK N 06TH ST,300.0,Robbery Firearm,18,2015-01,-75.138205,40.01079,2015,1,24,No,
1230634,3,2,2015-01-24 20:50:00,2015-01-24,20:50:00,20,201503005047,400 BLOCK SHUNK ST,300.0,Robbery Firearm,3,2015-01,-75.155201,39.916072,2015,1,24,No,
826007,2,2,2015-01-24 22:18:00,2015-01-24,22:18:00,22,201502004673,5300 BLOCK TABOR AVE,100.0,Homicide - Criminal,2,2015-01,-75.106678,40.033464,2015,1,24,No,
1439235,12,3,2015-01-24 23:59:00,2015-01-24,23:59:00,23,201512005811,5400 BLOCK HARLEY DR,1500.0,Weapon Violations,9,2015-01,-75.215957,39.931352,2015,1,24,No,
348348,35,3,2015-01-25 01:27:00,2015-01-25,01:27:00,1,201535006421,6400 BLOCK N 16TH ST,1500.0,Weapon Violations,20,2015-01,-75.14513,40.052096,2015,1,25,No,
1255154,15,1,2015-01-25 10:47:00,2015-01-25,10:47:00,10,201515007659,5200 BLOCK FRANKFORD AVE,300.0,Robbery Firearm,11,2015-01,-75.078182,40.022416,2015,1,25,No,
1457132,15,1,2015-01-25 10:47:00,2015-01-25,10:47:00,10,201515007660,5200 BLOCK FRANKFORD AVE,300.0,Robbery Firearm,11,2015-01,-75.078182,40.022416,2015,1,25,No,
1960869,18,1,2015-01-25 11:17:00,2015-01-25,11:17:00,11,201518005200,6100 BLOCK HAZEL AVE,300.0,Robbery Firearm,14,2015-01,-75.244633,39.953423,2015,1,25,No,
1960881,18,1,2015-01-25 12:47:00,2015-01-25,12:47:00,12,201518005214,500 BLOCK S SALFORD ST,300.0,Robbery Firearm,14,2015-01,-75.241806,39.953871,2015,1,25,No,
174420,15,1,2015-01-25 12:52:00,2015-01-25,12:52:00,12,201515007684,5200 BLOCK FRANKFORD AVE,400.0,Aggravated Assault Firearm,11,2015-01,-75.078182,40.022416,2015,1,25,No,
229709,22,2,2015-01-25 14:37:00,2015-01-25,14:37:00,14,201522007121,2600 BLOCK N HOLLYWOOD ST,1500.0,Weapon Violations,16,2015-01,-75.179374,39.995934,2015,1,25,No,
1934011,17,2,2015-01-25 16:18:00,2015-01-25,16:18:00,16,201517002966,S 27TH ST / FEDERAL ST,1500.0,Weapon Violations,13,2015-01,-75.188461,39.938909,2015,1,25,No,
1108865,22,1,2015-01-25 18:11:00,2015-01-25,18:11:00,18,201522007176,2200 BLOCK N 20TH ST A,400.0,Aggravated Assault Firearm,16,2015-01,-75.165607,39.98799,2015,1,25,No,
1825698,1,1,2015-01-25 18:41:00,2015-01-25,18:41:00,18,201501002842,1900 BLOCK S 19TH ST,300.0,Robbery Firearm,1,2015-01,-75.177346,39.926641,2015,1,25,No,
1457143,15,1,2015-01-25 20:50:00,2015-01-25,20:50:00,20,201515007826,1200 BLOCK FOULKROD ST 1,300.0,Robbery Firearm,11,2015-01,-75.08813,40.021025,2015,1,25,No,
1457154,15,1,2015-01-25 22:21:00,2015-01-25,22:21:00,22,201515007844,4500 BLOCK FRANKFORD AVE,300.0,Robbery Firearm,11,2015-01,-75.086381,40.013919,2015,1,25,No,
1247181,24,3,2015-01-26 01:36:00,2015-01-26,01:36:00,1,201524007574,3300 BLOCK ARAMINGO AVE,400.0,Aggravated Assault Firearm,17,2015-01,-75.102725,39.99037,2015,1,26,Yes,Temple University Medical
1247203,24,3,2015-01-26 01:36:00,2015-01-26,01:36:00,1,201524007576,3300 BLOCK ARAMINGO AVE,400.0,Aggravated Assault Firearm,17,2015-01,-75.102725,39.99037,2015,1,26,Yes,Temple University Medical
1247192,24,3,2015-01-26 01:36:00,2015-01-26,01:36:00,1,201524007575,3300 BLOCK ARAMINGO AVE,400.0,Aggravated Assault Firearm,17,2015-01,-75.102725,39.99037,2015,1,26,Yes,Temple University Medical
1445101,35,2,2015-01-26 03:54:00,2015-01-26,03:54:00,3,201535006688,5300 BLOCK N 08TH ST,400.0,Aggravated Assault Firearm,20,2015-01,-75.136465,40.032542,2015,1,26,No,
51756,24,2,2015-01-26 10:29:00,2015-01-26,10:29:00,10,201524007616,3100 BLOCK RORER ST,300.0,Robbery Firearm,17,2015-01,-75.120684,39.995859,2015,1,26,No,
564514,18,1,2015-01-26 12:17:00,2015-01-26,12:17:00,12,201518005377,6100 BLOCK CEDAR AVE,300.0,Robbery Firearm,14,2015-01,-75.24479,39.952651,2015,1,26,No,
571764,25,4,2015-01-26 12:38:00,2015-01-26,12:38:00,12,201525006811,3400 BLOCK GERMANTOWN AVE,300.0,Robbery Firearm,18,2015-01,-75.14954,40.005284,2015,1,26,Yes,Temple University Medical
192488,26,1,2015-01-26 17:55:00,2015-01-26,17:55:00,17,201526004575,2300 BLOCK N FRONT ST,300.0,Robbery Firearm,19,2015-01,-75.132254,39.984804,2015,1,26,No,
1417128,25,3,2015-01-26 18:25:00,2015-01-26,18:25:00,18,201525006915,2700 BLOCK N 05TH ST,400.0,Aggravated Assault Firearm,18,2015-01,-75.139842,39.993478,2015,1,26,No,
1184405,12,2,2015-01-26 18:49:00,2015-01-26,18:49:00,18,201512006261,6000 BLOCK WARRINGTON AV TON AVE,300.0,Robbery Firearm,9,2015-01,-75.234029,39.935828,2015,1,26,No,
825796,25,3,2015-01-26 19:35:00,2015-01-26,19:35:00,19,201525006916,2700 BLOCK N 05TH ST,100.0,Homicide - Criminal,18,2015-01,-75.139842,39.993478,2015,1,26,No,
308549,17,1,2015-01-26 20:18:00,2015-01-26,20:18:00,20,201517003107,1500 BLOCK WASHINGTON AVE 1,300.0,Robbery Firearm,13,2015-01,-75.169972,39.938308,2015,1,26,No,
1108976,22,4,2015-01-26 21:49:00,2015-01-26,21:49:00,21,201522007490,N 33RD ST / W BERKS ST,400.0,Aggravated Assault Firearm,16,2015-01,-75.187707,39.985655,2015,1,26,No,
285501,12,3,2015-01-26 21:51:00,2015-01-26,21:51:00,21,201512006294,2600 BLOCK S DAGGETT ST,400.0,Aggravated Assault Firearm,9,2015-01,-75.228854,39.92007,2015,1,26,No,
487110,24,1,2015-01-26 23:48:00,2015-01-26,23:48:00,23,201524007782,3200 BLOCK JOYCE ST,400.0,Aggravated Assault Firearm,17,2015-01,-75.10854,39.994463,2015,1,26,No,
1463010,39,1,2015-01-27 00:30:00,2015-01-27,00:30:00,0,201539006735,4800 BLOCK KEYSER ST,400.0,Aggravated Assault Firearm,21,2015-01,-75.164604,40.024649,2015,1,27,No,
51767,24,2,2015-01-27 00:43:00,2015-01-27,00:43:00,0,201524007789,2000 BLOCK E CAMBRIA ST,300.0,Robbery Firearm,17,2015-01,-75.118222,39.990415,2015,1,27,No,
1247214,24,1,2015-01-27 01:48:00,2015-01-27,01:48:00,1,201524007797,3200 BLOCK JOYCE ST,400.0,Aggravated Assault Firearm,17,2015-01,-75.10854,39.994463,2015,1,27,No,
2055308,22,2,2015-01-27 01:56:00,2015-01-27,01:56:00,1,201522007506,2600 BLOCK W LEHIGH AVE,300.0,Robbery Firearm,16,2015-01,-75.175004,39.996538,2015,1,27,No,
1493991,15,3,2015-01-27 03:02:00,2015-01-27,03:02:00,3,201515008166,6900 BLOCK ROWLAND AVE,1500.0,Weapon Violations,11,2015-01,-75.050936,40.034232,2015,1,27,No,
1980640,19,2,2015-01-27 07:16:00,2015-01-27,07:16:00,7,201519007883,1500 BLOCK N ROBINSON ST,1500.0,Weapon Violations,15,2015-01,-75.242521,39.975032,2015,1,27,No,
223061,25,3,2015-01-27 07:18:00,2015-01-27,07:18:00,7,201525006998,700 BLOCK E MADISON ST,1500.0,Weapon Violations,18,2015-01,-75.115494,39.997678,2015,1,27,No,
357865,22,1,2015-01-27 12:28:00,2015-01-27,12:28:00,12,201522007580,2200 BLOCK N VAN PELT ST,300.0,Robbery Firearm,16,2015-01,-75.168394,39.988284,2015,1,27,No,
376793,16,2,2015-01-27 13:47:00,2015-01-27,13:47:00,13,201516003864,LEX ST / PARRISH ST,400.0,Aggravated Assault Firearm,12,2015-01,-75.211959,39.967831,2015,1,27,No,
881856,19,2,2015-01-27 13:55:00,2015-01-27,13:55:00,13,201519007996,5000 BLOCK LANCASTER AVE,400.0,Aggravated Assault Firearm,15,2015-01,-75.224316,39.976127,2015,1,27,No,
449723,19,3,2015-01-27 15:11:00,2015-01-27,15:11:00,15,201519008033,5600 BLOCK WYNDALE AVE,300.0,Robbery Firearm,15,2015-01,-75.237583,39.988885,2015,1,27,No,
666357,18,3,2015-01-27 16:33:00,2015-01-27,16:33:00,16,201518005572,4500 BLOCK WOODLAND AV,400.0,Aggravated Assault Firearm,14,2015-01,-75.209179,39.944884,2015,1,27,Yes,University of the Sciences in Philadelphia
523227,1,1,2015-01-27 17:19:00,2015-01-27,17:19:00,17,201501003087,2700 BLOCK MC KEAN ST,300.0,Robbery Firearm,1,2015-01,-75.192283,39.928567,2015,1,27,No,
313726,15,1,2015-01-27 19:53:00,2015-01-27,19:53:00,19,201515008394,1300 BLOCK DYRE ST,300.0,Robbery Firearm,11,2015-01,-75.083169,40.023506,2015,1,27,No,
88175,22,2,2015-01-27 19:57:00,2015-01-27,19:57:00,19,201522007697,2800 BLOCK W YORK ST,1500.0,Weapon Violations,16,2015-01,-75.17798,39.992234,2015,1,27,No,
1230743,3,2,2015-01-27 20:29:00,2015-01-27,20:29:00,20,201503005643,400 BLOCK SAINT MICHAEL DR,300.0,Robbery Firearm,3,2015-01,-75.155775,39.915576,2015,1,27,No,
1960892,18,2,2015-01-27 20:41:00,2015-01-27,20:41:00,20,201518005688,5700 BLOCK CATHARINE ST,300.0,Robbery Firearm,14,2015-01,-75.237172,39.950211,2015,1,27,No,
1959459,18,1,2015-01-27 21:31:00,2015-01-27,21:31:00,21,201518005733,5900 BLOCK LOCUST ST,300.0,Robbery Firearm,14,2015-01,-75.240639,39.957706,2015,1,27,No,
2055319,22,1,2015-01-27 22:13:00,2015-01-27,22:13:00,22,201522007765,1600 BLOCK W SUSQUEHANNA AVE,300.0,Robbery Firearm,16,2015-01,-75.159501,39.986676,2015,1,27,No,
2055330,22,1,2015-01-27 23:09:00,2015-01-27,23:09:00,23,201522007787,N GRATZ ST / W BERKS ST,300.0,Robbery Firearm,16,2015-01,-75.164413,39.982639,2015,1,27,No,
219003,39,1,2015-01-27 23:14:00,2015-01-27,23:14:00,23,201539006989,3600 BLOCK INDIAN QUEEN LN,300.0,Robbery Firearm,21,2015-01,-75.191739,40.009592,2015,1,27,No,
202258,35,1,2015-01-28 00:08:00,2015-01-28,00:08:00,0,201535007068,400 BLOCK W NEDRO AVE,300.0,Robbery Firearm,20,2015-01,-75.127668,40.040784,2015,1,28,No,
375107,35,2,2015-01-28 00:54:00,2015-01-28,00:54:00,0,201535007077,200 BLOCK W CLARKSON AVE,1500.0,Weapon Violations,20,2015-01,-75.125753,40.034303,2015,1,28,No,
1439246,12,2,2015-01-28 06:52:00,2015-01-28,06:52:00,6,201512006647,6000 BLOCK REGENT ST,1500.0,Weapon Violations,9,2015-01,-75.232439,39.932302,2015,1,28,No,
1405444,9,3,2015-01-28 09:42:00,2015-01-28,09:42:00,9,201509003487,600 BLOCK N 15TH ST,1500.0,Weapon Violations,8,2015-01,-75.162784,39.964331,2015,1,28,No,
1485939,15,1,2015-01-28 09:58:00,2015-01-28,09:58:00,9,201515008520,5000 BLOCK OXFORD AVE,1500.0,Weapon Violations,11,2015-01,-75.084495,40.022877,2015,1,28,No,
1360187,3,3,2015-01-28 11:32:00,2015-01-28,11:32:00,11,201503005746,900 BLOCK OREGON AVE,1500.0,Weapon Violations,3,2015-01,-75.163177,39.915666,2015,1,28,No,
1789872,6,2,2015-01-28 13:39:00,2015-01-28,13:39:00,13,201506004127,N 08TH ST / MARKET ST,400.0,Aggravated Assault Firearm,5,2015-01,-75.153585,39.951136,2015,1,28,No,
1457165,15,2,2015-01-28 14:19:00,2015-01-28,14:19:00,14,201515008579,5700 BLOCK FRANKFORD AVE,300.0,Robbery Firearm,11,2015-01,-75.073217,40.025448,2015,1,28,No,
1980651,19,1,2015-01-28 14:22:00,2015-01-28,14:22:00,14,201519008407,1300 BLOCK N 60TH ST,1500.0,Weapon Violations,15,2015-01,-75.239462,39.971518,2015,1,28,No,
825807,12,1,2015-01-28 15:44:00,2015-01-28,15:44:00,15,201512006765,2600 BLOCK MUHFELD ST,100.0,Homicide - Criminal,9,2015-01,-75.236383,39.914676,2015,1,28,No,
185986,25,4,2015-01-28 15:49:00,2015-01-28,15:49:00,15,201525007349,N BROAD ST / W ERIE AV,300.0,Robbery Firearm,21,2015-01,-75.151249,40.009288,2015,1,28,Yes,Temple University
484401,35,3,2015-01-28 16:07:00,2015-01-28,16:07:00,16,201535007207,1700 BLOCK CHELTEN AVE,1500.0,Weapon Violations,20,2015-01,-75.147045,40.051232,2015,1,28,No,
174531,15,3,2015-01-28 16:51:00,2015-01-28,16:51:00,16,201515008603,4700 BLOCK MERIDIAN ST,400.0,Aggravated Assault Firearm,11,2015-01,-75.028547,40.033498,2015,1,28,No,
174642,15,3,2015-01-28 17:29:00,2015-01-28,17:29:00,17,201515008613,4700 BLOCK MERIDIAN ST,400.0,Aggravated Assault Firearm,11,2015-01,-75.028547,40.033498,2015,1,28,No,
1831359,6,1,2015-01-28 19:46:00,2015-01-28,19:46:00,19,201506004178,800 BLOCK N BROAD ST,300.0,Robbery Firearm,5,2015-01,-75.159888,39.969159,2015,1,28,No,
174753,15,1,2015-01-28 20:36:00,2015-01-28,20:36:00,20,201515008671,2000 BLOCK HAWORTH ST,400.0,Aggravated Assault Firearm,11,2015-01,-75.072885,40.013238,2015,1,28,No,
1859964,16,2,2015-01-28 21:53:00,2015-01-28,21:53:00,21,201516004066,4800 BLOCK FAIRMOUNT AVE,300.0,Robbery Firearm,12,2015-01,-75.21812,39.964016,2015,1,28,No,
117087,24,2,2015-01-28 22:28:00,2015-01-28,22:28:00,22,201524008365,2800 BLOCK KENSINGTON AVE,300.0,Robbery Firearm,17,2015-01,-75.122499,39.991421,2015,1,28,No,
1224181,2,3,2015-01-28 22:48:00,2015-01-28,22:48:00,22,201502005442,1400 BLOCK SHELMIRE AVE,300.0,Robbery Firearm,2,2015-01,-75.071393,40.058852,2015,1,28,No,
1743142,35,2,2015-01-29 00:34:00,2015-01-29,00:34:00,0,201535007332,500 BLOCK W SOMERVILLE AVE,1500.0,Weapon Violations,20,2015-01,-75.131203,40.033356,2015,1,29,No,
457584,9,3,2015-01-29 00:38:00,2015-01-29,00:38:00,0,201509003593,2100 BLOCK FAIRMOUNT AVE,300.0,Robbery Firearm,8,2015-01,-75.173126,39.967264,2015,1,29,No,
1236952,2,2,2015-01-29 00:42:00,2015-01-29,00:42:00,0,201502005453,5300 BLOCK TABOR AVE,300.0,Robbery Firearm,2,2015-01,-75.106928,40.033191,2015,1,29,No,
825819,35,2,2015-01-29 00:46:00,2015-01-29,00:46:00,0,201535007339,200 BLOCK W CLARKSON AVE,100.0,Homicide - Criminal,20,2015-01,-75.126884,40.034458,2015,1,29,No,
125509,24,2,2015-01-29 01:09:00,2015-01-29,01:09:00,1,201524008407,3100 BLOCK D ST,300.0,Robbery Firearm,17,2015-01,-75.121661,39.995976,2015,1,29,No,
1417138,25,4,2015-01-29 01:12:00,2015-01-29,01:12:00,1,201525007500,1300 BLOCK W GLENWOOD AVE,400.0,Aggravated Assault Firearm,18,2015-01,-75.151515,39.997655,2015,1,29,No,
1708465,26,1,2015-01-29 09:18:00,2015-01-29,09:18:00,9,201526005011,2400 BLOCK N HOWARD ST,1500.0,Weapon Violations,19,2015-01,-75.132976,39.986507,2015,1,29,No,
376904,16,2,2015-01-29 09:40:00,2015-01-29,09:40:00,9,201516004119,800 BLOCK N 50TH ST,400.0,Aggravated Assault Firearm,12,2015-01,-75.220622,39.967967,2015,1,29,No,
417230,35,3,2015-01-29 10:48:00,2015-01-29,10:48:00,10,201535007394,2000 BLOCK W NEDRO AVE,1500.0,Weapon Violations,20,2015-01,-75.153899,40.043627,2015,1,29,No,
1109087,22,1,2015-01-29 10:56:00,2015-01-29,10:56:00,10,201522008119,1900 BLOCK DIAMOND ST,400.0,Aggravated Assault Firearm,16,2015-01,-75.164619,39.985824,2015,1,29,No,
488819,24,1,2015-01-29 12:27:00,2015-01-29,12:27:00,12,201524008515,3300 BLOCK G ST,400.0,Aggravated Assault Firearm,17,2015-01,-75.115052,39.998363,2015,1,29,No,
571709,24,2,2015-01-29 12:28:00,2015-01-29,12:28:00,12,201524008518,2900 BLOCK JANNEY ST,300.0,Robbery Firearm,17,2015-01,-75.112909,39.987803,2015,1,29,No,
302440,24,2,2015-01-29 18:33:00,2015-01-29,18:33:00,18,201524008594,2900 BLOCK KENSINGTON AVE,1500.0,Weapon Violations,17,2015-01,-75.120326,39.992726,2015,1,29,No,
1909415,12,2,2015-01-29 18:37:00,2015-01-29,18:37:00,18,201512007028,2100 BLOCK S SIMPSON ST,400.0,Aggravated Assault Firearm,9,2015-01,-75.234964,39.927028,2015,1,29,No,
125520,24,2,2015-01-29 19:15:00,2015-01-29,19:15:00,19,201524008608,3000 BLOCK ORMES ST,300.0,Robbery Firearm,17,2015-01,-75.125376,39.994919,2015,1,29,No,
771485,39,3,2015-01-29 19:19:00,2015-01-29,19:19:00,19,201539007457,2800 BLOCK N 20TH ST,400.0,Aggravated Assault Firearm,21,2015-01,-75.163516,39.997531,2015,1,29,No,
165692,15,3,2015-01-29 20:51:00,2015-01-29,20:51:00,20,201515008993,7300 BLOCK FRANKFORD AVE,300.0,Robbery Firearm,11,2015-01,-75.038181,40.037791,2015,1,29,No,
1445111,35,2,2015-01-29 22:26:00,2015-01-29,22:26:00,22,201535007548,MASCHER ST / W DUNCANNON AV,400.0,Aggravated Assault Firearm,20,2015-01,-75.124704,40.029407,2015,1,29,No,
1690164,5,2,2015-01-29 22:38:00,2015-01-29,22:38:00,22,201505001598,200 BLOCK KRAMS AVE,400.0,Aggravated Assault Firearm,4,2015-01,-75.223492,40.031444,2015,1,29,No,
1815777,16,1,2015-01-29 23:54:00,2015-01-29,23:54:00,23,201516004200,500 BLOCK N 39TH ST,300.0,Robbery Firearm,12,2015-01,-75.199496,39.962063,2015,1,29,No,
1445122,35,2,2015-01-30 00:32:00,2015-01-30,00:32:00,0,201535007573,4800 BLOCK N HUTCHINSON ST,400.0,Aggravated Assault Firearm,20,2015-01,-75.139742,40.025859,2015,1,30,No,
185997,25,4,2015-01-30 01:06:00,2015-01-30,01:06:00,1,201525007841,3200 BLOCK N BROAD ST,300.0,Robbery Firearm,18,2015-01,-75.152863,40.001642,2015,1,30,Yes,Temple University Medical
1463021,39,3,2015-01-30 01:54:00,2015-01-30,01:54:00,1,201539007546,3000 BLOCK N 22ND ST,400.0,Aggravated Assault Firearm,21,2015-01,-75.166619,40.00022,2015,1,30,No,
219014,39,2,2015-01-30 02:01:00,2015-01-30,02:01:00,2,201539007547,2000 BLOCK W ERIE AVE,300.0,Robbery Firearm,16,2015-01,-75.168322,39.975256,2015,1,30,No,
425759,2,3,2015-01-30 02:44:00,2015-01-30,02:44:00,2,201502005671,7500 BLOCK CALVERT ST,300.0,Robbery Firearm,2,2015-01,-75.053014,40.048829,2015,1,30,No,
571599,22,4,2015-01-30 10:52:00,2015-01-30,10:52:00,10,201522008425,2900 BLOCK W OXFORD ST,300.0,Robbery Firearm,16,2015-01,-75.183834,39.980551,2015,1,30,No,
571588,22,4,2015-01-30 12:13:00,2015-01-30,12:13:00,12,201522008424,2900 BLOCK W OXFORD ST,300.0,Robbery Firearm,16,2015-01,-75.183834,39.980551,2015,1,30,No,
771496,39,2,2015-01-30 12:44:00,2015-01-30,12:44:00,12,201539007637,3700 BLOCK N BOUVIER ST,400.0,Aggravated Assault Firearm,21,2015-01,-75.156767,40.010456,2015,1,30,No,
1754253,25,3,2015-01-30 13:05:00,2015-01-30,13:05:00,13,201525007948,400 BLOCK W LEHIGH AVE,1500.0,Weapon Violations,18,2015-01,-75.138372,39.991906,2015,1,30,No,
117098,24,2,2015-01-30 13:57:00,2015-01-30,13:57:00,13,201524008822,3100 BLOCK KENSINGTON AVE,300.0,Robbery Firearm,17,2015-01,-75.114997,39.99555,2015,1,30,No,
1439257,12,4,2015-01-30 14:41:00,2015-01-30,14:41:00,14,201512007204,900 BLOCK S 53RD ST,1500.0,Weapon Violations,9,2015-01,-75.228708,39.945871,2015,1,30,No,
211614,24,2,2015-01-30 15:08:00,2015-01-30,15:08:00,15,201524008830,2800 BLOCK ROSEHILL ST,1500.0,Weapon Violations,17,2015-01,-75.125281,39.991845,2015,1,30,No,
125531,24,1,2015-01-30 18:52:00,2015-01-30,18:52:00,18,201524008899,3500 BLOCK KENSINGTON AVE,300.0,Robbery Firearm,17,2015-01,-75.105693,40.000688,2015,1,30,No,
1417149,25,3,2015-01-30 19:11:00,2015-01-30,19:11:00,19,201525008077,2800 BLOCK N 04TH ST,400.0,Aggravated Assault Firearm,18,2015-01,-75.13764,39.994834,2015,1,30,No,
570253,35,3,2015-01-30 19:46:00,2015-01-30,19:46:00,19,201535007757,6600 BLOCK N OPAL ST,400.0,Aggravated Assault Firearm,20,2015-01,-75.151977,40.055844,2015,1,30,No,
385452,39,1,2015-01-30 20:15:00,2015-01-30,20:15:00,20,201539007724,KELLY DR / W HUNTING PARK AVE,1500.0,Weapon Violations,21,2015-01,-75.190522,39.999651,2015,1,30,No,
2055341,22,4,2015-01-30 20:31:00,2015-01-30,20:31:00,20,201522008572,3200 BLOCK W OXFORD ST,300.0,Robbery Firearm,16,2015-01,-75.187043,39.980977,2015,1,30,No,
88186,22,2,2015-01-30 23:25:00,2015-01-30,23:25:00,23,201522008657,2600 BLOCK N 28TH ST,1500.0,Weapon Violations,16,2015-01,-75.177052,39.996166,2015,1,30,No,
1248034,2,1,2015-01-30 23:48:00,2015-01-30,23:48:00,23,201502005872,1200 BLOCK GLENVIEW ST,300.0,Robbery Firearm,2,2015-01,-75.076641,40.047627,2015,1,30,No,
1909525,12,2,2015-01-31 00:52:00,2015-01-31,00:52:00,0,201512007367,5900 BLOCK CHESTER AVE,400.0,Aggravated Assault Firearm,9,2015-01,-75.231484,39.933622,2015,1,31,No,
1960903,18,2,2015-01-31 01:46:00,2015-01-31,01:46:00,1,201518006585,200 BLOCK S FRAZIER ST,300.0,Robbery Firearm,14,2015-01,-75.23483,39.958075,2015,1,31,No,
457651,14,1,2015-01-31 01:58:00,2015-01-31,01:58:00,1,201514007045,1300 BLOCK NARRAGANSETT ST,300.0,Robbery Firearm,10,2015-01,-75.159806,40.053937,2015,1,31,No,
1368469,12,2,2015-01-31 03:23:00,2015-01-31,03:23:00,3,201512007388,1700 BLOCK S EDGEWOOD ST,300.0,Robbery Firearm,9,2015-01,-75.234468,39.935186,2015,1,31,No,
1960914,18,2,2015-01-31 05:01:00,2015-01-31,05:01:00,5,201518006603,5500 BLOCK PEMBERTON ST,300.0,Robbery Firearm,14,2015-01,-75.232982,39.950607,2015,1,31,No,
449734,19,2,2015-01-31 07:28:00,2015-01-31,07:28:00,7,201519009354,0 BLOCK N 52ND ST 1,300.0,Robbery Firearm,15,2015-01,-75.224709,39.961067,2015,1,31,No,
1184415,12,4,2015-01-31 09:15:00,2015-01-31,09:15:00,9,201512007416,1400 BLOCK S ALLISON ST,300.0,Robbery Firearm,9,2015-01,-75.226391,39.939047,2015,1,31,No,
202269,35,3,2015-01-31 10:38:00,2015-01-31,10:38:00,10,201535007918,1400 BLOCK W CHEW AVE,300.0,Robbery Firearm,20,2015-01,-75.144639,40.039804,2015,1,31,No,
377015,16,2,2015-01-31 13:45:00,2015-01-31,13:45:00,13,201516004420,4500 BLOCK PARRISH ST,400.0,Aggravated Assault Firearm,12,2015-01,-75.213113,39.967788,2015,1,31,No,
449556,15,3,2015-01-31 15:20:00,2015-01-31,15:20:00,15,201515009492,4400 BLOCK KNORR ST,300.0,Robbery Firearm,11,2015-01,-75.046944,40.027796,2015,1,31,No,
211625,24,2,2015-01-31 18:08:00,2015-01-31,18:08:00,18,201524009177,1800 BLOCK E LIPPINCOTT ST,1500.0,Weapon Violations,17,2015-01,-75.11337,39.994771,2015,1,31,No,
308627,19,3,2015-01-31 18:24:00,2015-01-31,18:24:00,18,201519009483,4700 BLOCK W GIRARD AVE,300.0,Robbery Firearm,15,2015-01,-75.216375,39.972829,2015,1,31,No,
585356,35,1,2015-01-31 19:53:00,2015-01-31,19:53:00,19,201535008026,100 BLOCK W SPENCER AVE,300.0,Robbery Firearm,20,2015-01,-75.121826,40.043146,2015,1,31,No,
1200077,14,1,2015-01-31 20:21:00,2015-01-31,20:21:00,20,201514007248,5500 BLOCK ARDLEIGH ST,300.0,Robbery Firearm,10,2015-01,-75.158683,40.048486,2015,1,31,No,
2025228,19,2,2015-01-31 21:16:00,2015-01-31,21:16:00,21,201519009544,5000 BLOCK W THOMPSON ST,300.0,Robbery Firearm,15,2015-01,-75.222838,39.973277,2015,1,31,No,
1457176,15,2,2015-01-31 22:15:00,2015-01-31,22:15:00,22,201515009614,4300 BLOCK LEVICK ST,300.0,Robbery Firearm,11,2015-01,-75.055433,40.025644,2015,1,31,No,
1494002,15,2,2015-01-31 23:09:00,2015-01-31,23:09:00,23,201515009631,5400 BLOCK OXFORD AVE,1500.0,Weapon Violations,11,2015-01,-75.084973,40.030784,2015,1,31,No,
800976,35,1,2015-01-31 23:13:00,2015-01-31,23:13:00,23,201535008095,900 BLOCK W SPENCER AVE,300.0,Robbery Firearm,20,2015-01,-75.135655,40.044919,2015,1,31,No,
2025239,19,1,2015-01-31 23:29:00,2015-01-31,23:29:00,23,201519009568,6500 BLOCK LANSDOWNE AVE,300.0,Robbery Firearm,15,2015-01,-75.249323,39.974878,2015,1,31,No,
572886,19,1,2015-01-31 23:31:00,2015-01-31,23:31:00,23,201519009569,6500 BLOCK LANSDOWNE AVE,300.0,Robbery Firearm,15,2015-01,-75.249323,39.974878,2015,1,31,No,
882108,19,2,2015-01-31 23:31:00,2015-01-31,23:31:00,23,201519009571,1500 BLOCK N REDFIELD ST,400.0,Aggravated Assault Firearm,15,2015-01,-75.239187,39.975157,2015,1,31,No,
881966,19,2,2015-01-31 23:31:00,2015-01-31,23:31:00,23,201519009570,1500 BLOCK N REDFIELD ST,400.0,Aggravated Assault Firearm,15,2015-01,-75.239187,39.975157,2015,1,31,No,
1923610,12,3,2015-02-01 01:58:00,2015-02-01,01:58:00,1,201512007641,2600 BLOCK SHIELDS ST,400.0,Aggravated Assault Firearm,9,2015-02,-75.229515,39.918523,2015,2,1,No,
1445133,35,2,2015-02-01 02:11:00,2015-02-01,02:11:00,2,201535008140,5500 BLOCK RISING SUN AVE,400.0,Aggravated Assault Firearm,20,2015-02,-75.116115,40.03309,2015,2,1,No,
88197,22,1,2015-02-01 17:06:00,2015-02-01,17:06:00,17,201522009080,1200 BLOCK W SUSQUEHANNA AVE,1500.0,Weapon Violations,16,2015-02,-75.15252,39.985773,2015,2,1,No,
1109195,22,2,2015-02-01 18:35:00,2015-02-01,18:35:00,18,201522009146,2100 BLOCK N 22ND ST,400.0,Aggravated Assault Firearm,16,2015-02,-75.169543,39.986846,2015,2,1,No,
202291,35,1,2015-02-01 19:05:00,2015-02-01,19:05:00,19,201535008272,N 10TH ST / W GODFREY AV,300.0,Robbery Firearm,20,2015-02,-75.136022,40.046238,2015,2,1,No,
1838973,17,3,2015-02-01 19:14:00,2015-02-01,19:14:00,19,201517003847,S 20TH ST / TITAN ST,300.0,Robbery Firearm,13,2015-02,-75.177017,39.935857,2015,2,1,No,
279839,35,3,2015-02-01 19:15:00,2015-02-01,19:15:00,19,201535008304,INDEPENDENCE ST / OGONTZ AV,300.0,Robbery Firearm,20,2015-02,-75.149376,40.056934,2015,2,1,No,
358054,8,2,2015-02-01 19:44:00,2015-02-01,19:44:00,19,201508004356,9900 BLOCK FRANKFORD AVE,300.0,Robbery Firearm,7,2015-02,-74.982831,40.064601,2015,2,1,No,
1230854,3,2,2015-02-01 19:53:00,2015-02-01,19:53:00,19,201503006764,1800 BLOCK E MOYAMENSING AVE,300.0,Robbery Firearm,3,2015-02,-75.152032,39.924855,2015,2,1,No,
417241,35,3,2015-02-01 20:19:00,2015-02-01,20:19:00,20,201535008343,6000 BLOCK OGONTZ AVE,300.0,Robbery Firearm,20,2015-02,-75.150993,40.047474,2015,2,1,No,
219025,39,2,2015-02-01 21:53:00,2015-02-01,21:53:00,21,201539008263,3700 BLOCK GERMANTOWN AVE,300.0,Robbery Firearm,21,2015-02,-75.151378,40.010662,2015,2,1,No,
2025250,19,1,2015-02-01 22:28:00,2015-02-01,22:28:00,22,201519009846,5900 BLOCK LANCASTER AVE,300.0,Robbery Firearm,15,2015-02,-75.239142,39.981947,2015,2,1,No,
186008,25,2,2015-02-01 22:52:00,2015-02-01,22:52:00,22,201525008766,4700 BLOCK RISING SUN AVE,300.0,Robbery Firearm,18,2015-02,-75.125658,40.021786,2015,2,1,No,
301559,17,3,2015-02-02 01:41:00,2015-02-02,01:41:00,1,201517003873,1600 BLOCK DICKINSON ST REST,300.0,Robbery Firearm,13,2015-02,-75.172347,39.932216,2015,2,2,No,
572664,15,1,2015-02-02 02:49:00,2015-02-02,02:49:00,2,201515010014,4900 BLOCK COTTAGE ST,300.0,Robbery Firearm,11,2015-02,-75.075722,40.016138,2015,2,2,No,
1507566,24,1,2015-02-02 09:18:00,2015-02-02,09:18:00,9,201524009564,1100 BLOCK E ERIE AVE,1500.0,Weapon Violations,17,2015-02,-75.107008,40.005443,2015,2,2,No,
186019,25,2,2015-02-02 10:34:00,2015-02-02,10:34:00,10,201525008850,4900 BLOCK BOUDINOT ST,300.0,Robbery Firearm,18,2015-02,-75.116623,40.024871,2015,2,2,No,
1771439,35,1,2015-02-02 11:52:00,2015-02-02,11:52:00,11,201535008450,200 BLOCK E OLNEY AVE,1500.0,Weapon Violations,20,2015-02,-75.117661,40.034859,2015,2,2,No,
558703,17,3,2015-02-02 13:17:00,2015-02-02,13:17:00,13,201517003910,1400 BLOCK S RINGGOLD ST,400.0,Aggravated Assault Firearm,13,2015-02,-75.185053,39.93393,2015,2,2,No,
1439036,8,1,2015-02-02 13:28:00,2015-02-02,13:28:00,13,201508004445,8500 BLOCK MARSDEN ST,1500.0,Weapon Violations,7,2015-02,-75.012759,40.042668,2015,2,2,No,
360501,35,2,2015-02-02 16:47:00,2015-02-02,16:47:00,16,201535008505,4500 BLOCK N BROAD ST,300.0,Robbery Firearm,20,2015-02,-75.148309,40.022429,2015,2,2,No,
1463030,39,2,2015-02-02 17:14:00,2015-02-02,17:14:00,17,201539008420,2600 BLOCK ROBERTS AVE,400.0,Aggravated Assault Firearm,21,2015-02,-75.169937,40.015194,2015,2,2,No,
825830,14,2,2015-02-02 19:59:00,2015-02-02,19:59:00,19,201514007662,5900 BLOCK MAGNOLIA ST,100.0,Homicide - Criminal,10,2015-02,-75.171638,40.044913,2015,2,2,No,
186030,25,2,2015-02-02 20:37:00,2015-02-02,20:37:00,20,201525009017,300 BLOCK E ROOSEVELT BLVD,300.0,Robbery Firearm,18,2015-02,-75.119414,40.025894,2015,2,2,No,
1463041,39,2,2015-02-02 20:45:00,2015-02-02,20:45:00,20,201539008464,2600 BLOCK ROBERTS AVE,400.0,Aggravated Assault Firearm,21,2015-02,-75.169937,40.015194,2015,2,2,No,
1463062,39,2,2015-02-02 22:03:00,2015-02-02,22:03:00,22,201539008502,2600 BLOCK ROBERTS AVE,400.0,Aggravated Assault Firearm,21,2015-02,-75.169937,40.015194,2015,2,2,No,
1463052,39,2,2015-02-02 22:03:00,2015-02-02,22:03:00,22,201539008501,2600 BLOCK ROBERTS AVE,400.0,Aggravated Assault Firearm,21,2015-02,-75.169937,40.015194,2015,2,2,No,
1494013,15,3,2015-02-02 22:25:00,2015-02-02,22:25:00,22,201515010251,7100 BLOCK FRANKFORD AVE,1500.0,Weapon Violations,11,2015-02,-75.044732,40.034801,2015,2,2,No,
1782732,2,2,2015-02-02 23:06:00,2015-02-02,23:06:00,23,201502006371,600 BLOCK BRILL ST,400.0,Aggravated Assault Firearm,2,2015-02,-75.102182,40.039202,2015,2,2,No,
457853,19,2,2015-02-02 23:16:00,2015-02-02,23:16:00,23,201519010188,5600 BLOCK MASTER ST,300.0,Robbery Firearm,15,2015-02,-75.234725,39.973368,2015,2,2,No,
375118,35,2,2015-02-03 01:10:00,2015-02-03,01:10:00,1,201535008689,500 BLOCK W LINDLEY AVE,1500.0,Weapon Violations,20,2015-02,-75.132216,40.028736,2015,2,3,No,
1923720,12,3,2015-02-03 01:25:00,2015-02-03,01:25:00,1,201512008156,6500 BLOCK PASCHALL AVE,400.0,Aggravated Assault Firearm,9,2015-02,-75.23424,39.923851,2015,2,3,No,
